{
  "meta": {
    "schema_version": 2,
    "generated_at": "2026-02-22T23:08:39.891157Z",
    "generated_at_unix": 1771801719,
    "count": 291,
    "source_file": "co_courses.xlsx"
  },
  "courses": [
    {
      "id": 1,
      "name": "Adobe Creek National Golf Course",
      "city": "Fruita",
      "region": "West Slope",
      "type": "Public",
      "address": "876 18 1/2 Road, Fruita, CO 81521",
      "lat": 39.132734,
      "lng": -108.71002,
      "played": false,
      "order": null,
      "first_played": null,
      "video_url": null,
      "has_video": false,
      "apple_maps": "https://maps.apple.com/?q=876%2018%201/2%20Road%2C%20Fruita%2C%20CO%2081521",
      "google_maps": "https://www.google.com/maps/search/?api=1&query=876%2018%201/2%20Road%2C%20Fruita%2C%20CO%2081521"
    },
    {
      "id": 2,
      "name": "Antler Creek Golf Course",
      "city": "Falcon",
      "region": "Front Range South",
      "type": "Public",
      "address": "9650 Antler Creek Drive, Falcon, CO 80831",
      "lat": 38.9369,
      "lng": -104.593,
      "played": true,
      "order": 6,
      "first_played": "2019-05-19",
      "video_url": null,
      "has_video": false,
      "apple_maps": "https://maps.apple.com/?q=9650%20Antler%20Creek%20Drive%2C%20Falcon%2C%20CO%2080831",
      "google_maps": "https://www.google.com/maps/search/?api=1&query=9650%20Antler%20Creek%20Drive%2C%20Falcon%2C%20CO%2080831"
    },
    {
      "id": 3,
      "name": "Applewood Golf Course",
      "city": "Golden",
      "region": "Denver Area",
      "type": "Public",
      "address": "14001 W. 32nd Ave, Golden, CO 80401",
      "lat": 39.7627,
      "lng": -105.1575,
      "played": true,
      "order": 76,
      "first_played": "2024-11-25",
      "video_url": null,
      "has_video": false,
      "apple_maps": "https://maps.apple.com/?q=14001%20W.%2032nd%20Ave%2C%20Golden%2C%20CO%2080401",
      "google_maps": "https://www.google.com/maps/search/?api=1&query=14001%20W.%2032nd%20Ave%2C%20Golden%2C%20CO%2080401"
    },
    {
      "id": 4,
      "name": "Arrowhead Golf Club",
      "city": "Littleton",
      "region": "Denver Area",
      "type": "Public",
      "address": "10850 W. Sundown Trail, Littleton, CO 80125",
      "lat": 39.4533,
      "lng": -105.0824,
      "played": true,
      "order": 23,
      "first_played": "2021-03-10",
      "video_url": null,
      "has_video": false,
      "apple_maps": "https://maps.apple.com/?q=10850%20W.%20Sundown%20Trail%2C%20Littleton%2C%20CO%2080125",
      "google_maps": "https://www.google.com/maps/search/?api=1&query=10850%20W.%20Sundown%20Trail%2C%20Littleton%2C%20CO%2080125"
    },
    {
      "id": 5,
      "name": "Aspen Glen Club",
      "city": "Carbondale",
      "region": "Mountain Area",
      "type": "Private",
      "address": "545 Bald Eagle Way, Carbondale, CO 81623",
      "lat": 39.4023,
      "lng": -107.2113,
      "played": false,
      "order": null,
      "first_played": null,
      "video_url": null,
      "has_video": false,
      "apple_maps": "https://maps.apple.com/?q=545%20Bald%20Eagle%20Way%2C%20Carbondale%2C%20CO%2081623",
      "google_maps": "https://www.google.com/maps/search/?api=1&query=545%20Bald%20Eagle%20Way%2C%20Carbondale%2C%20CO%2081623"
    },
    {
      "id": 6,
      "name": "Aspen Golf & Tennis Club",
      "city": "Aspen",
      "region": "Mountain Area",
      "type": "Public",
      "address": "39551 Highway 82, Aspen, CO 81611",
      "lat": 39.1911,
      "lng": -106.8175,
      "played": false,
      "order": null,
      "first_played": null,
      "video_url": null,
      "has_video": false,
      "apple_maps": "https://maps.apple.com/?q=39551%20Highway%2082%2C%20Aspen%2C%20CO%2081611",
      "google_maps": "https://www.google.com/maps/search/?api=1&query=39551%20Highway%2082%2C%20Aspen%2C%20CO%2081611"
    },
    {
      "id": 7,
      "name": "Aurora Hills Golf Course",
      "city": "Aurora",
      "region": "Denver Area",
      "type": "Public",
      "address": "50 S. Peoria St, Aurora, CO 80012",
      "lat": 39.7147,
      "lng": -104.8405,
      "played": false,
      "order": null,
      "first_played": null,
      "video_url": null,
      "has_video": false,
      "apple_maps": "https://maps.apple.com/?q=50%20S.%20Peoria%20St%2C%20Aurora%2C%20CO%2080012",
      "google_maps": "https://www.google.com/maps/search/?api=1&query=50%20S.%20Peoria%20St%2C%20Aurora%2C%20CO%2080012"
    },
    {
      "id": 8,
      "name": "Ballyneal",
      "city": "Holyoke",
      "region": "Front Range North",
      "type": "Private",
      "address": "One Ballyneal Lane, Holyoke, CO 80734",
      "lat": 40.582,
      "lng": -102.3011,
      "played": true,
      "order": 36,
      "first_played": "2022-06-05",
      "video_url": null,
      "has_video": false,
      "apple_maps": "https://maps.apple.com/?q=One%20Ballyneal%20Lane%2C%20Holyoke%2C%20CO%2080734",
      "google_maps": "https://www.google.com/maps/search/?api=1&query=One%20Ballyneal%20Lane%2C%20Holyoke%2C%20CO%2080734"
    },
    {
      "id": 9,
      "name": "Ballyneal Short Course",
      "city": "Holyoke",
      "region": "Front Range North",
      "type": "Private",
      "address": "One Ballyneal Lane, Holyoke, CO 80734",
      "lat": 40.42214,
      "lng": -102.273219,
      "played": false,
      "order": null,
      "first_played": null,
      "video_url": null,
      "has_video": false,
      "apple_maps": "https://maps.apple.com/?q=One%20Ballyneal%20Lane%2C%20Holyoke%2C%20CO%2080734",
      "google_maps": "https://www.google.com/maps/search/?api=1&query=One%20Ballyneal%20Lane%2C%20Holyoke%2C%20CO%2080734"
    },
    {
      "id": 10,
      "name": "Battlement Mesa Golf Club",
      "city": "Parachute",
      "region": "West Slope",
      "type": "Public",
      "address": "3930 N. Battlement Pkwy, Parachute, CO 81635",
      "lat": 39.4557,
      "lng": -108.0446,
      "played": false,
      "order": null,
      "first_played": null,
      "video_url": null,
      "has_video": false,
      "apple_maps": "https://maps.apple.com/?q=3930%20N.%20Battlement%20Pkwy%2C%20Parachute%2C%20CO%2081635",
      "google_maps": "https://www.google.com/maps/search/?api=1&query=3930%20N.%20Battlement%20Pkwy%2C%20Parachute%2C%20CO%2081635"
    },
    {
      "id": 11,
      "name": "Bear Creek Golf Club",
      "city": "Denver",
      "region": "Denver Area",
      "type": "Private",
      "address": "12201 Morrison Rd, Denver, CO 80228",
      "lat": 39.6536,
      "lng": -105.1363,
      "played": true,
      "order": 91,
      "first_played": "2025-05-11",
      "video_url": "https://www.instagram.com/reel/DJy4_qLteV-/?igsh=eWtlZDEzZXQwZ2U4",
      "has_video": true,
      "apple_maps": "https://maps.apple.com/?q=12201%20Morrison%20Rd%2C%20Denver%2C%20CO%2080228",
      "google_maps": "https://www.google.com/maps/search/?api=1&query=12201%20Morrison%20Rd%2C%20Denver%2C%20CO%2080228"
    },
    {
      "id": 12,
      "name": "Bear Dance, The Golf Club at",
      "city": "Larkspur",
      "region": "Denver Area",
      "type": "Public",
      "address": "6630 Bear Dance Road, Larkspur, CO 80118",
      "lat": 39.2376,
      "lng": -104.8204,
      "played": true,
      "order": 4,
      "first_played": "2018-08-04",
      "video_url": null,
      "has_video": false,
      "apple_maps": "https://maps.apple.com/?q=6630%20Bear%20Dance%20Road%2C%20Larkspur%2C%20CO%2080118",
      "google_maps": "https://www.google.com/maps/search/?api=1&query=6630%20Bear%20Dance%20Road%2C%20Larkspur%2C%20CO%2080118"
    },
    {
      "id": 13,
      "name": "Beaver Creek Golf Club",
      "city": "Avon",
      "region": "Mountain Area",
      "type": "Private",
      "address": "103 Offerson Road, Avon, CO 81620",
      "lat": 39.6373,
      "lng": -106.3742,
      "played": false,
      "order": null,
      "first_played": null,
      "video_url": null,
      "has_video": false,
      "apple_maps": "https://maps.apple.com/?q=103%20Offerson%20Road%2C%20Avon%2C%20CO%2081620",
      "google_maps": "https://www.google.com/maps/search/?api=1&query=103%20Offerson%20Road%2C%20Avon%2C%20CO%2081620"
    },
    {
      "id": 14,
      "name": "Bella Ridge Golf Club",
      "city": "Johnstown",
      "region": "Front Range North",
      "type": "Public",
      "address": "5749 County Rd 42, Johnstown, CO 80534",
      "lat": 40.3259,
      "lng": -104.9138,
      "played": true,
      "order": 113,
      "first_played": "2025-08-29",
      "video_url": "https://www.instagram.com/reel/DOmaUsQgRyI/?utm_source=ig_web_copy_link&igsh=MXJ5dnF5aDkwZ2JzaQ==",
      "has_video": true,
      "apple_maps": "https://maps.apple.com/?q=5749%20County%20Rd%2042%2C%20Johnstown%2C%20CO%2080534",
      "google_maps": "https://www.google.com/maps/search/?api=1&query=5749%20County%20Rd%2042%2C%20Johnstown%2C%20CO%2080534"
    },
    {
      "id": 15,
      "name": "Bella Rosa Municipal Golf Course",
      "city": "Frederick",
      "region": "Front Range North",
      "type": "Public",
      "address": "5830 Bella Rosa Parkway, Frederick, CO 80504",
      "lat": 40.0994,
      "lng": -104.9397,
      "played": false,
      "order": null,
      "first_played": null,
      "video_url": null,
      "has_video": false,
      "apple_maps": "https://maps.apple.com/?q=5830%20Bella%20Rosa%20Parkway%2C%20Frederick%2C%20CO%2080504",
      "google_maps": "https://www.google.com/maps/search/?api=1&query=5830%20Bella%20Rosa%20Parkway%2C%20Frederick%2C%20CO%2080504"
    },
    {
      "id": 16,
      "name": "Black Canyon Golf Course",
      "city": "Montrose",
      "region": "West Slope",
      "type": "Public",
      "address": "1350 Birch St, Montrose, CO 81401",
      "lat": 38.4775,
      "lng": -107.8757,
      "played": false,
      "order": null,
      "first_played": null,
      "video_url": null,
      "has_video": false,
      "apple_maps": "https://maps.apple.com/?q=1350%20Birch%20St%2C%20Montrose%2C%20CO%2081401",
      "google_maps": "https://www.google.com/maps/search/?api=1&query=1350%20Birch%20St%2C%20Montrose%2C%20CO%2081401"
    },
    {
      "id": 17,
      "name": "Bookcliff Country Club",
      "city": "Grand Junction",
      "region": "West Slope",
      "type": "Private",
      "address": "2730 G Road, Grand Junction, CO 81506",
      "lat": 39.123,
      "lng": -108.6122,
      "played": false,
      "order": null,
      "first_played": null,
      "video_url": null,
      "has_video": false,
      "apple_maps": "https://maps.apple.com/?q=2730%20G%20Road%2C%20Grand%20Junction%2C%20CO%2081506",
      "google_maps": "https://www.google.com/maps/search/?api=1&query=2730%20G%20Road%2C%20Grand%20Junction%2C%20CO%2081506"
    },
    {
      "id": 18,
      "name": "Boomerang Golf Links",
      "city": "Greeley",
      "region": "Front Range North",
      "type": "Public",
      "address": "7309 W 4th St Greeley, CO 80634",
      "lat": 40.4293,
      "lng": -104.7968,
      "played": true,
      "order": 77,
      "first_played": "2024-12-02",
      "video_url": null,
      "has_video": false,
      "apple_maps": "https://maps.apple.com/?q=7309%20W%204th%20St%20Greeley%2C%20CO%2080634",
      "google_maps": "https://www.google.com/maps/search/?api=1&query=7309%20W%204th%20St%20Greeley%2C%20CO%2080634"
    },
    {
      "id": 19,
      "name": "Boomerang Golf Links - Short Course",
      "city": "Greeley",
      "region": "Front Range North",
      "type": "Public",
      "address": "7309 W 4th St Greeley, CO 80634",
      "lat": 40.428921,
      "lng": -104.798583,
      "played": true,
      "order": 110,
      "first_played": "2025-08-15",
      "video_url": "https://www.instagram.com/reel/DOBvxIttynw/?igsh=OTZwMTBlMGt2cHZk",
      "has_video": true,
      "apple_maps": "https://maps.apple.com/?q=7309%20W%204th%20St%20Greeley%2C%20CO%2080634",
      "google_maps": "https://www.google.com/maps/search/?api=1&query=7309%20W%204th%20St%20Greeley%2C%20CO%2080634"
    },
    {
      "id": 20,
      "name": "Boulder Country Club",
      "city": "Boulder",
      "region": "Denver Area",
      "type": "Private",
      "address": "7350 Clubhouse Rd, Boulder, CO 80301",
      "lat": 40.0625,
      "lng": -105.184677,
      "played": false,
      "order": null,
      "first_played": null,
      "video_url": null,
      "has_video": false,
      "apple_maps": "https://maps.apple.com/?q=7350%20Clubhouse%20Rd%2C%20Boulder%2C%20CO%2080301",
      "google_maps": "https://www.google.com/maps/search/?api=1&query=7350%20Clubhouse%20Rd%2C%20Boulder%2C%20CO%2080301"
    },
    {
      "id": 21,
      "name": "Boulder Country Club - Par 3",
      "city": "Boulder",
      "region": "Denver Area",
      "type": "Private",
      "address": "7350 Clubhouse Rd, Boulder, CO 80301",
      "lat": 40.06713,
      "lng": -105.189523,
      "played": false,
      "order": null,
      "first_played": null,
      "video_url": null,
      "has_video": false,
      "apple_maps": "https://maps.apple.com/?q=7350%20Clubhouse%20Rd%2C%20Boulder%2C%20CO%2080301",
      "google_maps": "https://www.google.com/maps/search/?api=1&query=7350%20Clubhouse%20Rd%2C%20Boulder%2C%20CO%2080301"
    },
    {
      "id": 22,
      "name": "Breckenridge Golf Club - Bear",
      "city": "Breckenridge",
      "region": "Mountain Area",
      "type": "Public",
      "address": "200 Clubhouse Drive, Breckenridge, CO 80424",
      "lat": 39.5157,
      "lng": -106.0426,
      "played": false,
      "order": null,
      "first_played": null,
      "video_url": null,
      "has_video": false,
      "apple_maps": "https://maps.apple.com/?q=200%20Clubhouse%20Drive%2C%20Breckenridge%2C%20CO%2080424",
      "google_maps": "https://www.google.com/maps/search/?api=1&query=200%20Clubhouse%20Drive%2C%20Breckenridge%2C%20CO%2080424"
    },
    {
      "id": 23,
      "name": "Breckenridge Golf Club - Beaver",
      "city": "Breckenridge",
      "region": "Mountain Area",
      "type": "Public",
      "address": "200 Clubhouse Drive, Breckenridge, CO 80424",
      "lat": 39.5157,
      "lng": -106.0426,
      "played": false,
      "order": null,
      "first_played": null,
      "video_url": null,
      "has_video": false,
      "apple_maps": "https://maps.apple.com/?q=200%20Clubhouse%20Drive%2C%20Breckenridge%2C%20CO%2080424",
      "google_maps": "https://www.google.com/maps/search/?api=1&query=200%20Clubhouse%20Drive%2C%20Breckenridge%2C%20CO%2080424"
    },
    {
      "id": 24,
      "name": "Breckenridge Golf Club - Elk",
      "city": "Breckenridge",
      "region": "Mountain Area",
      "type": "Public",
      "address": "200 Clubhouse Drive, Breckenridge, CO 80424",
      "lat": 39.5157,
      "lng": -106.0426,
      "played": false,
      "order": null,
      "first_played": null,
      "video_url": null,
      "has_video": false,
      "apple_maps": "https://maps.apple.com/?q=200%20Clubhouse%20Drive%2C%20Breckenridge%2C%20CO%2080424",
      "google_maps": "https://www.google.com/maps/search/?api=1&query=200%20Clubhouse%20Drive%2C%20Breckenridge%2C%20CO%2080424"
    },
    {
      "id": 25,
      "name": "Bridges, The",
      "city": "Montrose",
      "region": "West Slope",
      "type": "Semi-Private",
      "address": "2500 Bridges Dr, Montrose, CO 81401",
      "lat": 38.4608,
      "lng": -107.839,
      "played": false,
      "order": null,
      "first_played": null,
      "video_url": null,
      "has_video": false,
      "apple_maps": "https://maps.apple.com/?q=2500%20Bridges%20Dr%2C%20Montrose%2C%20CO%2081401",
      "google_maps": "https://www.google.com/maps/search/?api=1&query=2500%20Bridges%20Dr%2C%20Montrose%2C%20CO%2081401"
    },
    {
      "id": 26,
      "name": "Broadlands Golf Course",
      "city": "Broomfield",
      "region": "Denver Area",
      "type": "Public",
      "address": "4380 W 144th Ave, Broomfield, CO 80020",
      "lat": 39.9517,
      "lng": -105.0435,
      "played": true,
      "order": 124,
      "first_played": "2026-02-02",
      "video_url": null,
      "has_video": false,
      "apple_maps": "https://maps.apple.com/?q=4380%20W%20144th%20Ave%2C%20Broomfield%2C%20CO%2080020",
      "google_maps": "https://www.google.com/maps/search/?api=1&query=4380%20W%20144th%20Ave%2C%20Broomfield%2C%20CO%2080020"
    },
    {
      "id": 27,
      "name": "Broadmoor Golf Club East",
      "city": "Colorado Springs",
      "region": "Front Range South",
      "type": "Private",
      "address": "1 Lake Avenue, Colorado Springs, CO 80906",
      "lat": 38.788274,
      "lng": -104.850594,
      "played": true,
      "order": 26,
      "first_played": "2021-07-08",
      "video_url": null,
      "has_video": false,
      "apple_maps": "https://maps.apple.com/?q=1%20Lake%20Avenue%2C%20Colorado%20Springs%2C%20CO%2080906",
      "google_maps": "https://www.google.com/maps/search/?api=1&query=1%20Lake%20Avenue%2C%20Colorado%20Springs%2C%20CO%2080906"
    },
    {
      "id": 28,
      "name": "Broadmoor Golf Club West",
      "city": "Colorado Springs",
      "region": "Front Range South",
      "type": "Private",
      "address": "1 Lake Avenue, Colorado Springs, CO 80906",
      "lat": 38.788932,
      "lng": -104.850688,
      "played": true,
      "order": 29,
      "first_played": "2021-07-28",
      "video_url": "https://www.instagram.com/reel/DPPrniLAY6L/?igsh=dGxxNGNwdG52aWcw",
      "has_video": true,
      "apple_maps": "https://maps.apple.com/?q=1%20Lake%20Avenue%2C%20Colorado%20Springs%2C%20CO%2080906",
      "google_maps": "https://www.google.com/maps/search/?api=1&query=1%20Lake%20Avenue%2C%20Colorado%20Springs%2C%20CO%2080906"
    },
    {
      "id": 29,
      "name": "Broken Tee Golf Course",
      "city": "Englewood",
      "region": "Denver Area",
      "type": "Public",
      "address": "2101 W Oxford Ave, Englewood, CO 80110",
      "lat": 39.643494,
      "lng": -105.013176,
      "played": true,
      "order": 96,
      "first_played": "2025-05-22",
      "video_url": "https://www.instagram.com/reel/DLhhQt6xqAb/?utm_source=ig_web_copy_link&igsh=MXF0ejFrM3JocWtmbw==",
      "has_video": true,
      "apple_maps": "https://maps.apple.com/?q=2101%20W%20Oxford%20Ave%2C%20Englewood%2C%20CO%2080110",
      "google_maps": "https://www.google.com/maps/search/?api=1&query=2101%20W%20Oxford%20Ave%2C%20Englewood%2C%20CO%2080110"
    },
    {
      "id": 30,
      "name": "Broken Tee Golf Course - Par 3",
      "city": "Englewood",
      "region": "Denver Area",
      "type": "Public",
      "address": "2101 W Oxford Ave, Englewood, CO 80110",
      "lat": 39.645839,
      "lng": -105.011111,
      "played": true,
      "order": 95,
      "first_played": "2025-05-22",
      "video_url": "https://www.instagram.com/reel/DLXTQ1fsGTp/?utm_source=ig_web_copy_link&igsh=MWQ1OHJ4MGl2YjV5cg==",
      "has_video": true,
      "apple_maps": "https://maps.apple.com/?q=2101%20W%20Oxford%20Ave%2C%20Englewood%2C%20CO%2080110",
      "google_maps": "https://www.google.com/maps/search/?api=1&query=2101%20W%20Oxford%20Ave%2C%20Englewood%2C%20CO%2080110"
    },
    {
      "id": 31,
      "name": "Buffalo Run Golf Course",
      "city": "Commerce City",
      "region": "Denver Area",
      "type": "Public",
      "address": "15700 E 112th Ave, Commerce City, CO 80022 ​",
      "lat": 39.8986,
      "lng": -104.8089,
      "played": false,
      "order": null,
      "first_played": null,
      "video_url": null,
      "has_video": false,
      "apple_maps": "https://maps.apple.com/?q=15700%20E%20112th%20Ave%2C%20Commerce%20City%2C%20CO%2080022%20%E2%80%8B",
      "google_maps": "https://www.google.com/maps/search/?api=1&query=15700%20E%20112th%20Ave%2C%20Commerce%20City%2C%20CO%2080022%20%E2%80%8B"
    },
    {
      "id": 32,
      "name": "Castle Pines Golf Club",
      "city": "Castle Rock",
      "region": "Denver Area",
      "type": "Private",
      "address": "1000 Hummingbird Dr, Castle Rock, CO 80108",
      "lat": 39.4095,
      "lng": -104.8626,
      "played": false,
      "order": null,
      "first_played": null,
      "video_url": null,
      "has_video": false,
      "apple_maps": "https://maps.apple.com/?q=1000%20Hummingbird%20Dr%2C%20Castle%20Rock%2C%20CO%2080108",
      "google_maps": "https://www.google.com/maps/search/?api=1&query=1000%20Hummingbird%20Dr%2C%20Castle%20Rock%2C%20CO%2080108"
    },
    {
      "id": 33,
      "name": "Castle Pines, The Country Club at",
      "city": "Castle Rock",
      "region": "Denver Area",
      "type": "Private",
      "address": "6400 Country Club Dr, Castle Rock, CO 80108",
      "lat": 39.4218,
      "lng": -104.8893,
      "played": true,
      "order": 53,
      "first_played": "2023-08-09",
      "video_url": null,
      "has_video": false,
      "apple_maps": "https://maps.apple.com/?q=6400%20Country%20Club%20Dr%2C%20Castle%20Rock%2C%20CO%2080108",
      "google_maps": "https://www.google.com/maps/search/?api=1&query=6400%20Country%20Club%20Dr%2C%20Castle%20Rock%2C%20CO%2080108"
    },
    {
      "id": 34,
      "name": "Catamount Ranch & Club",
      "city": "Steamboat Springs",
      "region": "Mountain Area",
      "type": "Private",
      "address": "33400A Catamount Drive, Steamboat Springs, CO 80487",
      "lat": 40.5406,
      "lng": -106.8972,
      "played": false,
      "order": null,
      "first_played": null,
      "video_url": null,
      "has_video": false,
      "apple_maps": "https://maps.apple.com/?q=33400A%20Catamount%20Drive%2C%20Steamboat%20Springs%2C%20CO%2080487",
      "google_maps": "https://www.google.com/maps/search/?api=1&query=33400A%20Catamount%20Drive%2C%20Steamboat%20Springs%2C%20CO%2080487"
    },
    {
      "id": 35,
      "name": "Cattail Creek Golf Course",
      "city": "Loveland",
      "region": "Front Range North",
      "type": "Public",
      "address": "2116 W 29th St, Loveland, CO 80538",
      "lat": 40.4205,
      "lng": -105.1047,
      "played": false,
      "order": null,
      "first_played": null,
      "video_url": null,
      "has_video": false,
      "apple_maps": "https://maps.apple.com/?q=2116%20W%2029th%20St%2C%20Loveland%2C%20CO%2080538",
      "google_maps": "https://www.google.com/maps/search/?api=1&query=2116%20W%2029th%20St%2C%20Loveland%2C%20CO%2080538"
    },
    {
      "id": 36,
      "name": "Cedar Ridges Golf Course",
      "city": "Rangely",
      "region": "West Slope",
      "type": "Public",
      "address": "502 County Road 108, Rangely, CO 81648",
      "lat": 40.0874,
      "lng": -108.8023,
      "played": false,
      "order": null,
      "first_played": null,
      "video_url": null,
      "has_video": false,
      "apple_maps": "https://maps.apple.com/?q=502%20County%20Road%20108%2C%20Rangely%2C%20CO%2081648",
      "google_maps": "https://www.google.com/maps/search/?api=1&query=502%20County%20Road%20108%2C%20Rangely%2C%20CO%2081648"
    },
    {
      "id": 37,
      "name": "Cedaredge Golf Club",
      "city": "Cedaredge",
      "region": "West Slope",
      "type": "Public",
      "address": "500 SE Jay Avenue, Cedaredge, CO 81413",
      "lat": 38.9052,
      "lng": -107.9254,
      "played": false,
      "order": null,
      "first_played": null,
      "video_url": null,
      "has_video": false,
      "apple_maps": "https://maps.apple.com/?q=500%20SE%20Jay%20Avenue%2C%20Cedaredge%2C%20CO%2081413",
      "google_maps": "https://www.google.com/maps/search/?api=1&query=500%20SE%20Jay%20Avenue%2C%20Cedaredge%2C%20CO%2081413"
    },
    {
      "id": 38,
      "name": "Challenger Golf Course",
      "city": "Alamosa",
      "region": "Mountain Area",
      "type": "Public",
      "address": "67581 County Road T, Crestone, CO 81131",
      "lat": 37.9969,
      "lng": -105.7012,
      "played": false,
      "order": null,
      "first_played": null,
      "video_url": null,
      "has_video": false,
      "apple_maps": "https://maps.apple.com/?q=67581%20County%20Road%20T%2C%20Crestone%2C%20CO%2081131",
      "google_maps": "https://www.google.com/maps/search/?api=1&query=67581%20County%20Road%20T%2C%20Crestone%2C%20CO%2081131"
    },
    {
      "id": 39,
      "name": "Cherokee Ridge Golf Course",
      "city": "Colorado Springs",
      "region": "Front Range South",
      "type": "Public",
      "address": "1850 Tuskegee Place, Colorado Springs, CO 80915",
      "lat": 38.858867,
      "lng": -104.713479,
      "played": true,
      "order": 9,
      "first_played": "2019-08-23",
      "video_url": "https://www.instagram.com/reel/DL98SXZMcac/?utm_source=ig_web_copy_link&igsh=MTZsdmNxbHdjamVmcw==",
      "has_video": true,
      "apple_maps": "https://maps.apple.com/?q=1850%20Tuskegee%20Place%2C%20Colorado%20Springs%2C%20CO%2080915",
      "google_maps": "https://www.google.com/maps/search/?api=1&query=1850%20Tuskegee%20Place%2C%20Colorado%20Springs%2C%20CO%2080915"
    },
    {
      "id": 40,
      "name": "Cherokee Ridge Golf Course - Par 3",
      "city": "Colorado Springs",
      "region": "Front Range South",
      "type": "Public",
      "address": "1850 Tuskegee Place, Colorado Springs, CO 80915",
      "lat": 38.857874,
      "lng": -104.714355,
      "played": true,
      "order": 21,
      "first_played": "2020-11-01",
      "video_url": null,
      "has_video": false,
      "apple_maps": "https://maps.apple.com/?q=1850%20Tuskegee%20Place%2C%20Colorado%20Springs%2C%20CO%2080915",
      "google_maps": "https://www.google.com/maps/search/?api=1&query=1850%20Tuskegee%20Place%2C%20Colorado%20Springs%2C%20CO%2080915"
    },
    {
      "id": 41,
      "name": "Cherry Creek Country Club",
      "city": "Denver",
      "region": "Denver Area",
      "type": "Private",
      "address": "2405 S Yosemite St, Denver, CO 80231",
      "lat": 39.6726,
      "lng": -104.8847,
      "played": true,
      "order": 51,
      "first_played": "2023-07-26",
      "video_url": "https://www.instagram.com/reel/DK4VHz2tmae/?utm_source=ig_web_copy_link&igsh=MXVpNnI1NzRpMm9nbA==",
      "has_video": true,
      "apple_maps": "https://maps.apple.com/?q=2405%20S%20Yosemite%20St%2C%20Denver%2C%20CO%2080231",
      "google_maps": "https://www.google.com/maps/search/?api=1&query=2405%20S%20Yosemite%20St%2C%20Denver%2C%20CO%2080231"
    },
    {
      "id": 42,
      "name": "Cherry Hills Country Club",
      "city": "Cherry Hills",
      "region": "Denver Area",
      "type": "Private",
      "address": "4125 S University Blvd, Cherry Hills Village, CO 80113",
      "lat": 39.6418,
      "lng": -104.9594,
      "played": true,
      "order": 56,
      "first_played": "2023-08-23",
      "video_url": "https://www.instagram.com/reel/DJod3-dNtz8/?igsh=MW1ianNucGxwd3NxaQ==",
      "has_video": true,
      "apple_maps": "https://maps.apple.com/?q=4125%20S%20University%20Blvd%2C%20Cherry%20Hills%20Village%2C%20CO%2080113",
      "google_maps": "https://www.google.com/maps/search/?api=1&query=4125%20S%20University%20Blvd%2C%20Cherry%20Hills%20Village%2C%20CO%2080113"
    },
    {
      "id": 43,
      "name": "Cherry Hills Country Club - Par 3",
      "city": "Cherry Hills",
      "region": "Denver Area",
      "type": "Private",
      "address": "4125 S University Blvd, Cherry Hills Village, CO 80113",
      "lat": 39.645223,
      "lng": -104.960903,
      "played": false,
      "order": null,
      "first_played": null,
      "video_url": null,
      "has_video": false,
      "apple_maps": "https://maps.apple.com/?q=4125%20S%20University%20Blvd%2C%20Cherry%20Hills%20Village%2C%20CO%2080113",
      "google_maps": "https://www.google.com/maps/search/?api=1&query=4125%20S%20University%20Blvd%2C%20Cherry%20Hills%20Village%2C%20CO%2080113"
    },
    {
      "id": 44,
      "name": "Cheyenne Shadows Golf Club at Fort Carson",
      "city": "Fort Carson",
      "region": "Front Range South",
      "type": "Public",
      "address": "7800 Titus Blvd, Fort Carson, CO 80913",
      "lat": 38.7269,
      "lng": -104.7942,
      "played": true,
      "order": 5,
      "first_played": "2018-08-31",
      "video_url": "https://www.instagram.com/reel/DO9lhsTDsDM/?igsh=MXEybnBwdWo5c240eA==",
      "has_video": true,
      "apple_maps": "https://maps.apple.com/?q=7800%20Titus%20Blvd%2C%20Fort%20Carson%2C%20CO%2080913",
      "google_maps": "https://www.google.com/maps/search/?api=1&query=7800%20Titus%20Blvd%2C%20Fort%20Carson%2C%20CO%2080913"
    },
    {
      "id": 45,
      "name": "Chipeta Golf Course",
      "city": "Grand Junction",
      "region": "West Slope",
      "type": "Public",
      "address": "222 29 Road, Grand Junction, CO 81503",
      "lat": 39.0437,
      "lng": -108.5535,
      "played": false,
      "order": null,
      "first_played": null,
      "video_url": null,
      "has_video": false,
      "apple_maps": "https://maps.apple.com/?q=222%2029%20Road%2C%20Grand%20Junction%2C%20CO%2081503",
      "google_maps": "https://www.google.com/maps/search/?api=1&query=222%2029%20Road%2C%20Grand%20Junction%2C%20CO%2081503"
    },
    {
      "id": 46,
      "name": "City Park Golf Course - Denver",
      "city": "Denver",
      "region": "Denver Area",
      "type": "Public",
      "address": "3181 E 23rd Ave, Denver, CO 80205",
      "lat": 39.7521,
      "lng": -104.9487,
      "played": true,
      "order": 50,
      "first_played": "2023-07-24",
      "video_url": "https://www.instagram.com/reel/DMfeqgnxnpH/?igsh=cjU5dXpja3cxeDVl",
      "has_video": true,
      "apple_maps": "https://maps.apple.com/?q=3181%20E%2023rd%20Ave%2C%20Denver%2C%20CO%2080205",
      "google_maps": "https://www.google.com/maps/search/?api=1&query=3181%20E%2023rd%20Ave%2C%20Denver%2C%20CO%2080205"
    },
    {
      "id": 47,
      "name": "City Park Nine Golf Course",
      "city": "Fort Collins",
      "region": "Front Range North",
      "type": "Public",
      "address": "411 S Bryan Ave, Fort Collins, CO 80521",
      "lat": 40.5798,
      "lng": -105.0873,
      "played": false,
      "order": null,
      "first_played": null,
      "video_url": null,
      "has_video": false,
      "apple_maps": "https://maps.apple.com/?q=411%20S%20Bryan%20Ave%2C%20Fort%20Collins%2C%20CO%2080521",
      "google_maps": "https://www.google.com/maps/search/?api=1&query=411%20S%20Bryan%20Ave%2C%20Fort%20Collins%2C%20CO%2080521"
    },
    {
      "id": 48,
      "name": "ClubCorp at Black Bear Golf Club",
      "city": "Parker",
      "region": "Denver Area",
      "type": "Private",
      "address": "11400 Canterberry Pkwy, Parker, CO 80138",
      "lat": 39.4834,
      "lng": -104.7378,
      "played": false,
      "order": null,
      "first_played": null,
      "video_url": null,
      "has_video": false,
      "apple_maps": "https://maps.apple.com/?q=11400%20Canterberry%20Pkwy%2C%20Parker%2C%20CO%2080138",
      "google_maps": "https://www.google.com/maps/search/?api=1&query=11400%20Canterberry%20Pkwy%2C%20Parker%2C%20CO%2080138"
    },
    {
      "id": 49,
      "name": "ClubCorp at Blackstone Country Club",
      "city": "Aurora",
      "region": "Denver Area",
      "type": "Private",
      "address": "7777 S Country Club Pkwy, Aurora, CO 80016",
      "lat": 39.5743,
      "lng": -104.7302,
      "played": true,
      "order": 93,
      "first_played": "2025-05-17",
      "video_url": "https://www.instagram.com/reel/DKRuPwfN61F/?utm_source=ig_web_copy_link&igsh=OGZlaDN3N3Y1Zjhr",
      "has_video": true,
      "apple_maps": "https://maps.apple.com/?q=7777%20S%20Country%20Club%20Pkwy%2C%20Aurora%2C%20CO%2080016",
      "google_maps": "https://www.google.com/maps/search/?api=1&query=7777%20S%20Country%20Club%20Pkwy%2C%20Aurora%2C%20CO%2080016"
    },
    {
      "id": 50,
      "name": "Coal Creek Golf Course",
      "city": "Louisville",
      "region": "Denver Area",
      "type": "Public",
      "address": "585 W Dillon Rd, Louisville, CO 80027",
      "lat": 39.9588,
      "lng": -105.1472,
      "played": false,
      "order": null,
      "first_played": null,
      "video_url": null,
      "has_video": false,
      "apple_maps": "https://maps.apple.com/?q=585%20W%20Dillon%20Rd%2C%20Louisville%2C%20CO%2080027",
      "google_maps": "https://www.google.com/maps/search/?api=1&query=585%20W%20Dillon%20Rd%2C%20Louisville%2C%20CO%2080027"
    },
    {
      "id": 51,
      "name": "Cobble Creek, The Links at",
      "city": "Montrose",
      "region": "West Slope",
      "type": "Semi-Private",
      "address": "699 Cobble Dr, Montrose, CO 81401",
      "lat": 38.4746,
      "lng": -107.8583,
      "played": false,
      "order": null,
      "first_played": null,
      "video_url": null,
      "has_video": false,
      "apple_maps": "https://maps.apple.com/?q=699%20Cobble%20Dr%2C%20Montrose%2C%20CO%2081401",
      "google_maps": "https://www.google.com/maps/search/?api=1&query=699%20Cobble%20Dr%2C%20Montrose%2C%20CO%2081401"
    },
    {
      "id": 52,
      "name": "Collegiate Peaks Golf Course",
      "city": "Buena Vista",
      "region": "Mountain Area",
      "type": "Public",
      "address": "28775 Fairway Dr, Buena Vista, CO 81211",
      "lat": 38.8389,
      "lng": -106.1312,
      "played": false,
      "order": null,
      "first_played": null,
      "video_url": null,
      "has_video": false,
      "apple_maps": "https://maps.apple.com/?q=28775%20Fairway%20Dr%2C%20Buena%20Vista%2C%20CO%2081211",
      "google_maps": "https://www.google.com/maps/search/?api=1&query=28775%20Fairway%20Dr%2C%20Buena%20Vista%2C%20CO%2081211"
    },
    {
      "id": 53,
      "name": "Collindale Golf Course",
      "city": "Fort Collins",
      "region": "Front Range North",
      "type": "Public",
      "address": "1441 E Horsetooth Rd, Fort Collins, CO 80525",
      "lat": 40.5374,
      "lng": -105.0526,
      "played": false,
      "order": null,
      "first_played": null,
      "video_url": null,
      "has_video": false,
      "apple_maps": "https://maps.apple.com/?q=1441%20E%20Horsetooth%20Rd%2C%20Fort%20Collins%2C%20CO%2080525",
      "google_maps": "https://www.google.com/maps/search/?api=1&query=1441%20E%20Horsetooth%20Rd%2C%20Fort%20Collins%2C%20CO%2080525"
    },
    {
      "id": 54,
      "name": "Colorado Golf Club",
      "city": "Parker",
      "region": "Denver Area",
      "type": "Private",
      "address": "8000 Preservation Trail, Parker, CO 80134",
      "lat": 39.477329,
      "lng": -104.735475,
      "played": true,
      "order": 60,
      "first_played": "2023-10-19",
      "video_url": null,
      "has_video": false,
      "apple_maps": "https://maps.apple.com/?q=8000%20Preservation%20Trail%2C%20Parker%2C%20CO%2080134",
      "google_maps": "https://www.google.com/maps/search/?api=1&query=8000%20Preservation%20Trail%2C%20Parker%2C%20CO%2080134"
    },
    {
      "id": 55,
      "name": "Colorado Golf Club Short Course",
      "city": "Parker",
      "region": "Denver Area",
      "type": "Private",
      "address": "8000 Preservation Trail, Parker, CO 80134",
      "lat": 39.475441,
      "lng": -104.729111,
      "played": false,
      "order": null,
      "first_played": null,
      "video_url": null,
      "has_video": false,
      "apple_maps": "https://maps.apple.com/?q=8000%20Preservation%20Trail%2C%20Parker%2C%20CO%2080134",
      "google_maps": "https://www.google.com/maps/search/?api=1&query=8000%20Preservation%20Trail%2C%20Parker%2C%20CO%2080134"
    },
    {
      "id": 56,
      "name": "Colorado National Golf Club",
      "city": "Erie",
      "region": "Denver Area",
      "type": "Public",
      "address": "2700 Vista Pkwy, Erie, CO 80516",
      "lat": 40.0518,
      "lng": -105.0496,
      "played": true,
      "order": 78,
      "first_played": "2025-02-24",
      "video_url": null,
      "has_video": false,
      "apple_maps": "https://maps.apple.com/?q=2700%20Vista%20Pkwy%2C%20Erie%2C%20CO%2080516",
      "google_maps": "https://www.google.com/maps/search/?api=1&query=2700%20Vista%20Pkwy%2C%20Erie%2C%20CO%2080516"
    },
    {
      "id": 57,
      "name": "Colorado Springs Country Club",
      "city": "Colorado Springs",
      "region": "Front Range South",
      "type": "Private",
      "address": "3333 Templeton Gap Rd, Colorado Springs, CO 80907",
      "lat": 38.8803,
      "lng": -104.7739,
      "played": true,
      "order": 8,
      "first_played": "2019-08-21",
      "video_url": null,
      "has_video": false,
      "apple_maps": "https://maps.apple.com/?q=3333%20Templeton%20Gap%20Rd%2C%20Colorado%20Springs%2C%20CO%2080907",
      "google_maps": "https://www.google.com/maps/search/?api=1&query=3333%20Templeton%20Gap%20Rd%2C%20Colorado%20Springs%2C%20CO%2080907"
    },
    {
      "id": 58,
      "name": "Columbine Country Club",
      "city": "Littleton",
      "region": "Denver Area",
      "type": "Private",
      "address": "17 Fairway Ln, Littleton, CO 80123",
      "lat": 39.6128,
      "lng": -105.0782,
      "played": true,
      "order": 85,
      "first_played": "2025-04-07",
      "video_url": "https://www.instagram.com/reel/DIKiBAwRHjs/?igsh=MmV6Y29vaGk3N2Z2",
      "has_video": true,
      "apple_maps": "https://maps.apple.com/?q=17%20Fairway%20Ln%2C%20Littleton%2C%20CO%2080123",
      "google_maps": "https://www.google.com/maps/search/?api=1&query=17%20Fairway%20Ln%2C%20Littleton%2C%20CO%2080123"
    },
    {
      "id": 59,
      "name": "Columbine Country Club - Par 3",
      "city": "Littleton",
      "region": "Denver Area",
      "type": "Private",
      "address": "17 Fairway Ln, Littleton, CO 80123",
      "lat": 39.602927,
      "lng": -105.038846,
      "played": false,
      "order": null,
      "first_played": null,
      "video_url": null,
      "has_video": false,
      "apple_maps": "https://maps.apple.com/?q=17%20Fairway%20Ln%2C%20Littleton%2C%20CO%2080123",
      "google_maps": "https://www.google.com/maps/search/?api=1&query=17%20Fairway%20Ln%2C%20Littleton%2C%20CO%2080123"
    },
    {
      "id": 60,
      "name": "CommonGround Golf Course",
      "city": "Aurora",
      "region": "Denver Area",
      "type": "Public",
      "address": "10300 E Golfers Way, Aurora, CO 80010",
      "lat": 39.7376,
      "lng": -104.8649,
      "played": true,
      "order": 20,
      "first_played": "2020-10-18",
      "video_url": "https://www.instagram.com/reel/DLukFcNM57U/?utm_source=ig_web_copy_link&igsh=anVmYm4yNjJocnZw",
      "has_video": true,
      "apple_maps": "https://maps.apple.com/?q=10300%20E%20Golfers%20Way%2C%20Aurora%2C%20CO%2080010",
      "google_maps": "https://www.google.com/maps/search/?api=1&query=10300%20E%20Golfers%20Way%2C%20Aurora%2C%20CO%2080010"
    },
    {
      "id": 61,
      "name": "CommonGround Golf Course - Par 3",
      "city": "Aurora",
      "region": "Denver Area",
      "type": "Public",
      "address": "10300 E Golfers Way, Aurora, CO 80010",
      "lat": 39.71257,
      "lng": -104.867082,
      "played": true,
      "order": 97,
      "first_played": "2025-06-01",
      "video_url": "https://www.instagram.com/reel/DLm0APvsTDx/?utm_source=ig_web_copy_link&igsh=d2ZlMzloM2Y2MW1m",
      "has_video": true,
      "apple_maps": "https://maps.apple.com/?q=10300%20E%20Golfers%20Way%2C%20Aurora%2C%20CO%2080010",
      "google_maps": "https://www.google.com/maps/search/?api=1&query=10300%20E%20Golfers%20Way%2C%20Aurora%2C%20CO%2080010"
    },
    {
      "id": 62,
      "name": "Conquistador Golf Course",
      "city": "Cortez",
      "region": "West Slope",
      "type": "Public",
      "address": "2018 N Dolores Rd, Cortez, CO 81321",
      "lat": 37.3648,
      "lng": -108.5743,
      "played": false,
      "order": null,
      "first_played": null,
      "video_url": null,
      "has_video": false,
      "apple_maps": "https://maps.apple.com/?q=2018%20N%20Dolores%20Rd%2C%20Cortez%2C%20CO%2081321",
      "google_maps": "https://www.google.com/maps/search/?api=1&query=2018%20N%20Dolores%20Rd%2C%20Cortez%2C%20CO%2081321"
    },
    {
      "id": 63,
      "name": "Copper Creek Golf Club",
      "city": "Copper Mountain",
      "region": "Mountain Area",
      "type": "Public",
      "address": "104 Wheeler Pl, Copper Mountain, CO 80443",
      "lat": 39.5025,
      "lng": -106.151,
      "played": false,
      "order": null,
      "first_played": null,
      "video_url": null,
      "has_video": false,
      "apple_maps": "https://maps.apple.com/?q=104%20Wheeler%20Pl%2C%20Copper%20Mountain%2C%20CO%2080443",
      "google_maps": "https://www.google.com/maps/search/?api=1&query=104%20Wheeler%20Pl%2C%20Copper%20Mountain%2C%20CO%2080443"
    },
    {
      "id": 64,
      "name": "Cordillera, Club at - Mountain Course",
      "city": "Edwards",
      "region": "Mountain Area",
      "type": "Private",
      "address": "655 Clubhouse Dr, Edwards, CO 81632",
      "lat": 39.6423,
      "lng": -106.5958,
      "played": false,
      "order": null,
      "first_played": null,
      "video_url": null,
      "has_video": false,
      "apple_maps": "https://maps.apple.com/?q=655%20Clubhouse%20Dr%2C%20Edwards%2C%20CO%2081632",
      "google_maps": "https://www.google.com/maps/search/?api=1&query=655%20Clubhouse%20Dr%2C%20Edwards%2C%20CO%2081632"
    },
    {
      "id": 65,
      "name": "Cordillera, Club at - Short Course",
      "city": "Edwards",
      "region": "Mountain Area",
      "type": "Private",
      "address": "100 Kensington Dr, Edwards, CO 81632",
      "lat": 39.6338,
      "lng": -106.5921,
      "played": false,
      "order": null,
      "first_played": null,
      "video_url": null,
      "has_video": false,
      "apple_maps": "https://maps.apple.com/?q=100%20Kensington%20Dr%2C%20Edwards%2C%20CO%2081632",
      "google_maps": "https://www.google.com/maps/search/?api=1&query=100%20Kensington%20Dr%2C%20Edwards%2C%20CO%2081632"
    },
    {
      "id": 66,
      "name": "Cordillera, Club at - Summt Course",
      "city": "Edwards",
      "region": "Mountain Area",
      "type": "Private",
      "address": "190 Gore Trail, Edwards, CO 81632",
      "lat": 39.6549,
      "lng": -106.6003,
      "played": true,
      "order": 68,
      "first_played": "2024-06-13",
      "video_url": null,
      "has_video": false,
      "apple_maps": "https://maps.apple.com/?q=190%20Gore%20Trail%2C%20Edwards%2C%20CO%2081632",
      "google_maps": "https://www.google.com/maps/search/?api=1&query=190%20Gore%20Trail%2C%20Edwards%2C%20CO%2081632"
    },
    {
      "id": 67,
      "name": "Cordillera, Club at - Valley Course",
      "city": "Edwards",
      "region": "Mountain Area",
      "type": "Private",
      "address": "655 Clubhouse Dr, Edwards, CO 81632",
      "lat": 39.6423,
      "lng": -106.5958,
      "played": false,
      "order": null,
      "first_played": null,
      "video_url": null,
      "has_video": false,
      "apple_maps": "https://maps.apple.com/?q=655%20Clubhouse%20Dr%2C%20Edwards%2C%20CO%2081632",
      "google_maps": "https://www.google.com/maps/search/?api=1&query=655%20Clubhouse%20Dr%2C%20Edwards%2C%20CO%2081632"
    },
    {
      "id": 68,
      "name": "Cornterstone Club",
      "city": "Montrose",
      "region": "West Slope",
      "type": "Private",
      "address": "Unnamed Rd, Montrose, CO 81403",
      "lat": 38.4152,
      "lng": -107.8798,
      "played": false,
      "order": null,
      "first_played": null,
      "video_url": null,
      "has_video": false,
      "apple_maps": "https://maps.apple.com/?q=Unnamed%20Rd%2C%20Montrose%2C%20CO%2081403",
      "google_maps": "https://www.google.com/maps/search/?api=1&query=Unnamed%20Rd%2C%20Montrose%2C%20CO%2081403"
    },
    {
      "id": 69,
      "name": "Cottonwood Links Golf Club",
      "city": "Fowler",
      "region": "Front Range South",
      "type": "Public",
      "address": "1 Cottonwood Ln, Fowler, CO 81039",
      "lat": 38.1287,
      "lng": -104.0224,
      "played": false,
      "order": null,
      "first_played": null,
      "video_url": null,
      "has_video": false,
      "apple_maps": "https://maps.apple.com/?q=1%20Cottonwood%20Ln%2C%20Fowler%2C%20CO%2081039",
      "google_maps": "https://www.google.com/maps/search/?api=1&query=1%20Cottonwood%20Ln%2C%20Fowler%2C%20CO%2081039"
    },
    {
      "id": 70,
      "name": "Country Club at Woodmoor",
      "city": "Monument",
      "region": "Front Range South",
      "type": "Semi-Private",
      "address": "18945 Pebble Beach Way, Monument, CO 80132",
      "lat": 39.0978,
      "lng": -104.8596,
      "played": true,
      "order": 35,
      "first_played": "2022-05-13",
      "video_url": null,
      "has_video": false,
      "apple_maps": "https://maps.apple.com/?q=18945%20Pebble%20Beach%20Way%2C%20Monument%2C%20CO%2080132",
      "google_maps": "https://www.google.com/maps/search/?api=1&query=18945%20Pebble%20Beach%20Way%2C%20Monument%2C%20CO%2080132"
    },
    {
      "id": 71,
      "name": "Country Club of Colorado",
      "city": "Colorado Springs",
      "region": "Front Range South",
      "type": "Private",
      "address": "125 Clubhouse Dr, Colorado Springs, CO 80906",
      "lat": 38.7912,
      "lng": -104.8456,
      "played": true,
      "order": 24,
      "first_played": "2021-04-29",
      "video_url": "https://www.instagram.com/p/DNInWkKMHct/",
      "has_video": true,
      "apple_maps": "https://maps.apple.com/?q=125%20Clubhouse%20Dr%2C%20Colorado%20Springs%2C%20CO%2080906",
      "google_maps": "https://www.google.com/maps/search/?api=1&query=125%20Clubhouse%20Dr%2C%20Colorado%20Springs%2C%20CO%2080906"
    },
    {
      "id": 72,
      "name": "Country Club of the Rockies",
      "city": "Edwards",
      "region": "Mountain Area",
      "type": "Private",
      "address": "676 Sawatch Dr, Edwards, CO 81632",
      "lat": 39.6447,
      "lng": -106.6041,
      "played": false,
      "order": null,
      "first_played": null,
      "video_url": null,
      "has_video": false,
      "apple_maps": "https://maps.apple.com/?q=676%20Sawatch%20Dr%2C%20Edwards%2C%20CO%2081632",
      "google_maps": "https://www.google.com/maps/search/?api=1&query=676%20Sawatch%20Dr%2C%20Edwards%2C%20CO%2081632"
    },
    {
      "id": 73,
      "name": "Coyote Creek Golf Course",
      "city": "Fort Lupton",
      "region": "Front Range North",
      "type": "Public",
      "address": "222 Clubhouse Dr, Fort Lupton, CO 80621",
      "lat": 40.0829,
      "lng": -104.8136,
      "played": true,
      "order": 30,
      "first_played": "2021-08-19",
      "video_url": null,
      "has_video": false,
      "apple_maps": "https://maps.apple.com/?q=222%20Clubhouse%20Dr%2C%20Fort%20Lupton%2C%20CO%2080621",
      "google_maps": "https://www.google.com/maps/search/?api=1&query=222%20Clubhouse%20Dr%2C%20Fort%20Lupton%2C%20CO%2080621"
    },
    {
      "id": 74,
      "name": "Crested Butte, The Club at",
      "city": "Crested Butte",
      "region": "Mountain Area",
      "type": "Semi-Private",
      "address": "385 Country Club Dr, Crested Butte, CO 81224",
      "lat": 38.9022,
      "lng": -106.9415,
      "played": false,
      "order": null,
      "first_played": null,
      "video_url": null,
      "has_video": false,
      "apple_maps": "https://maps.apple.com/?q=385%20Country%20Club%20Dr%2C%20Crested%20Butte%2C%20CO%2081224",
      "google_maps": "https://www.google.com/maps/search/?api=1&query=385%20Country%20Club%20Dr%2C%20Crested%20Butte%2C%20CO%2081224"
    },
    {
      "id": 75,
      "name": "Dalton Ranch Golf Club",
      "city": "Durango",
      "region": "West Slope",
      "type": "Semi-Private",
      "address": "589 County Rd 252, Durango, CO 81301",
      "lat": 37.3447,
      "lng": -107.8464,
      "played": false,
      "order": null,
      "first_played": null,
      "video_url": null,
      "has_video": false,
      "apple_maps": "https://maps.apple.com/?q=589%20County%20Rd%20252%2C%20Durango%2C%20CO%2081301",
      "google_maps": "https://www.google.com/maps/search/?api=1&query=589%20County%20Rd%20252%2C%20Durango%2C%20CO%2081301"
    },
    {
      "id": 76,
      "name": "Denver Country Club",
      "city": "Denver",
      "region": "Denver Area",
      "type": "Private",
      "address": "1700 E 1st Ave, Denver, CO 80218",
      "lat": 39.7187,
      "lng": -104.9656,
      "played": true,
      "order": 121,
      "first_played": "2025-10-31",
      "video_url": "https://www.instagram.com/p/DR32RrBDnTu/",
      "has_video": true,
      "apple_maps": "https://maps.apple.com/?q=1700%20E%201st%20Ave%2C%20Denver%2C%20CO%2080218",
      "google_maps": "https://www.google.com/maps/search/?api=1&query=1700%20E%201st%20Ave%2C%20Denver%2C%20CO%2080218"
    },
    {
      "id": 77,
      "name": "Desert Hawk at Pueblo West",
      "city": "Pueblo West",
      "region": "Front Range South",
      "type": "Public",
      "address": "251 S McCulloch Blvd, Pueblo West, CO 81007",
      "lat": 38.3465,
      "lng": -104.7242,
      "played": true,
      "order": 22,
      "first_played": "2021-01-16",
      "video_url": null,
      "has_video": false,
      "apple_maps": "https://maps.apple.com/?q=251%20S%20McCulloch%20Blvd%2C%20Pueblo%20West%2C%20CO%2081007",
      "google_maps": "https://www.google.com/maps/search/?api=1&query=251%20S%20McCulloch%20Blvd%2C%20Pueblo%20West%2C%20CO%2081007"
    },
    {
      "id": 78,
      "name": "Devil’s Thumb Golf Club",
      "city": "Delta",
      "region": "West Slope",
      "type": "Public",
      "address": "9900 Devils Thumb Rd, Delta, CO 81416",
      "lat": 38.7614,
      "lng": -108.0805,
      "played": false,
      "order": null,
      "first_played": null,
      "video_url": null,
      "has_video": false,
      "apple_maps": "https://maps.apple.com/?q=9900%20Devils%20Thumb%20Rd%2C%20Delta%2C%20CO%2081416",
      "google_maps": "https://www.google.com/maps/search/?api=1&query=9900%20Devils%20Thumb%20Rd%2C%20Delta%2C%20CO%2081416"
    },
    {
      "id": 79,
      "name": "Divide Ranch & Club",
      "city": "Ridgway",
      "region": "West Slope",
      "type": "Semi-Private",
      "address": "151 Divide Ranch Cir, Ridgway, CO 81432",
      "lat": 38.1408,
      "lng": -107.7654,
      "played": false,
      "order": null,
      "first_played": null,
      "video_url": null,
      "has_video": false,
      "apple_maps": "https://maps.apple.com/?q=151%20Divide%20Ranch%20Cir%2C%20Ridgway%2C%20CO%2081432",
      "google_maps": "https://www.google.com/maps/search/?api=1&query=151%20Divide%20Ranch%20Cir%2C%20Ridgway%2C%20CO%2081432"
    },
    {
      "id": 80,
      "name": "Dos Rios Golf Club",
      "city": "Gunnison",
      "region": "Mountain Area",
      "type": "Semi-Private",
      "address": "501 Camino Del Rio, Gunnison, CO 81230",
      "lat": 38.5539,
      "lng": -106.9383,
      "played": false,
      "order": null,
      "first_played": null,
      "video_url": null,
      "has_video": false,
      "apple_maps": "https://maps.apple.com/?q=501%20Camino%20Del%20Rio%2C%20Gunnison%2C%20CO%2081230",
      "google_maps": "https://www.google.com/maps/search/?api=1&query=501%20Camino%20Del%20Rio%2C%20Gunnison%2C%20CO%2081230"
    },
    {
      "id": 81,
      "name": "Eads Golf Course",
      "city": "Eads",
      "region": "Front Range South",
      "type": "Public",
      "address": "14999 Golf Course Rd, Eads, CO 81036",
      "lat": 38.4837,
      "lng": -102.7796,
      "played": false,
      "order": null,
      "first_played": null,
      "video_url": null,
      "has_video": false,
      "apple_maps": "https://maps.apple.com/?q=14999%20Golf%20Course%20Rd%2C%20Eads%2C%20CO%2081036",
      "google_maps": "https://www.google.com/maps/search/?api=1&query=14999%20Golf%20Course%20Rd%2C%20Eads%2C%20CO%2081036"
    },
    {
      "id": 82,
      "name": "Eagle Ranch Golf Course",
      "city": "Eagle",
      "region": "Mountain Area",
      "type": "Public",
      "address": "0050 Lime Park Dr, Eagle, CO 81631",
      "lat": 39.6276,
      "lng": -106.8235,
      "played": true,
      "order": 71,
      "first_played": "2024-07-24",
      "video_url": null,
      "has_video": false,
      "apple_maps": "https://maps.apple.com/?q=0050%20Lime%20Park%20Dr%2C%20Eagle%2C%20CO%2081631",
      "google_maps": "https://www.google.com/maps/search/?api=1&query=0050%20Lime%20Park%20Dr%2C%20Eagle%2C%20CO%2081631"
    },
    {
      "id": 83,
      "name": "Eagle Springs Golf Club",
      "city": "Wolcott",
      "region": "Mountain Area",
      "type": "Private",
      "address": "28521 US-6, Wolcott, CO 81655",
      "lat": 39.7021,
      "lng": -106.6808,
      "played": false,
      "order": null,
      "first_played": null,
      "video_url": null,
      "has_video": false,
      "apple_maps": "https://maps.apple.com/?q=28521%20US-6%2C%20Wolcott%2C%20CO%2081655",
      "google_maps": "https://www.google.com/maps/search/?api=1&query=28521%20US-6%2C%20Wolcott%2C%20CO%2081655"
    },
    {
      "id": 84,
      "name": "Eagle Trace Golf Club",
      "city": "Broomfield",
      "region": "Denver Area",
      "type": "Public",
      "address": "1200 Clubhouse Dr, Broomfield, CO 80020",
      "lat": 39.9335,
      "lng": -105.0681,
      "played": false,
      "order": null,
      "first_played": null,
      "video_url": null,
      "has_video": false,
      "apple_maps": "https://maps.apple.com/?q=1200%20Clubhouse%20Dr%2C%20Broomfield%2C%20CO%2080020",
      "google_maps": "https://www.google.com/maps/search/?api=1&query=1200%20Clubhouse%20Dr%2C%20Broomfield%2C%20CO%2080020"
    },
    {
      "id": 85,
      "name": "Eagle Vail Golf Club",
      "city": "Avon",
      "region": "Mountain Area",
      "type": "Public",
      "address": "459 Eagle Drive, Avon, CO 81620",
      "lat": 39.6396,
      "lng": -106.394,
      "played": false,
      "order": null,
      "first_played": null,
      "video_url": null,
      "has_video": false,
      "apple_maps": "https://maps.apple.com/?q=459%20Eagle%20Drive%2C%20Avon%2C%20CO%2081620",
      "google_maps": "https://www.google.com/maps/search/?api=1&query=459%20Eagle%20Drive%2C%20Avon%2C%20CO%2081620"
    },
    {
      "id": 86,
      "name": "Eaton Country Club",
      "city": "Eaton",
      "region": "Front Range North",
      "type": "Private",
      "address": "37661 County Road 39, Eaton, CO 80615",
      "lat": 40.5242,
      "lng": -104.6918,
      "played": true,
      "order": 111,
      "first_played": "2025-08-15",
      "video_url": "https://www.instagram.com/p/DOKEd7kAa1g/",
      "has_video": true,
      "apple_maps": "https://maps.apple.com/?q=37661%20County%20Road%2039%2C%20Eaton%2C%20CO%2080615",
      "google_maps": "https://www.google.com/maps/search/?api=1&query=37661%20County%20Road%2039%2C%20Eaton%2C%20CO%2080615"
    },
    {
      "id": 87,
      "name": "Eisenhower Golf Club - Blue",
      "city": "Colorado Springs",
      "region": "Front Range South",
      "type": "Public",
      "address": "Bldg. 3170, Golf Course Road, USAF Academy, CO 80840",
      "lat": 39.004786,
      "lng": -104.858295,
      "played": true,
      "order": 32,
      "first_played": "2022-04-02",
      "video_url": null,
      "has_video": false,
      "apple_maps": "https://maps.apple.com/?q=Bldg.%203170%2C%20Golf%20Course%20Road%2C%20USAF%20Academy%2C%20CO%2080840",
      "google_maps": "https://www.google.com/maps/search/?api=1&query=Bldg.%203170%2C%20Golf%20Course%20Road%2C%20USAF%20Academy%2C%20CO%2080840"
    },
    {
      "id": 88,
      "name": "Eisenhower Golf Club - Silver",
      "city": "Colorado Springs",
      "region": "Front Range South",
      "type": "Public",
      "address": "Bldg. 3170, Golf Course Road, USAF Academy, CO 80840",
      "lat": 39.006381,
      "lng": -104.8609,
      "played": true,
      "order": 16,
      "first_played": "2019-09-23",
      "video_url": "https://www.instagram.com/reel/DPXU551DsEB/?utm_source=ig_web_copy_link&igsh=MXZmdnB2cmxudGZ0Nw==",
      "has_video": true,
      "apple_maps": "https://maps.apple.com/?q=Bldg.%203170%2C%20Golf%20Course%20Road%2C%20USAF%20Academy%2C%20CO%2080840",
      "google_maps": "https://www.google.com/maps/search/?api=1&query=Bldg.%203170%2C%20Golf%20Course%20Road%2C%20USAF%20Academy%2C%20CO%2080840"
    },
    {
      "id": 89,
      "name": "Elmwood Golf Course",
      "city": "Pueblo",
      "region": "Front Range South",
      "type": "Public",
      "address": "3900 Thatcher Ave, Pueblo, CO 81005",
      "lat": 38.2366,
      "lng": -104.6594,
      "played": false,
      "order": null,
      "first_played": null,
      "video_url": null,
      "has_video": false,
      "apple_maps": "https://maps.apple.com/?q=3900%20Thatcher%20Ave%2C%20Pueblo%2C%20CO%2081005",
      "google_maps": "https://www.google.com/maps/search/?api=1&query=3900%20Thatcher%20Ave%2C%20Pueblo%2C%20CO%2081005"
    },
    {
      "id": 90,
      "name": "Emerald Greens Golf Club",
      "city": "Denver",
      "region": "Denver Area",
      "type": "Public",
      "address": "597 S Clinton St, Denver, CO 80247",
      "lat": 39.7054,
      "lng": -104.8791,
      "played": false,
      "order": null,
      "first_played": null,
      "video_url": null,
      "has_video": false,
      "apple_maps": "https://maps.apple.com/?q=597%20S%20Clinton%20St%2C%20Denver%2C%20CO%2080247",
      "google_maps": "https://www.google.com/maps/search/?api=1&query=597%20S%20Clinton%20St%2C%20Denver%2C%20CO%2080247"
    },
    {
      "id": 91,
      "name": "Estes Park Golf Course",
      "city": "Estes Park",
      "region": "Front Range North",
      "type": "Public",
      "address": "1480 Golf Course Road, Estes Park, CO 80517",
      "lat": 40.3969,
      "lng": -105.5057,
      "played": false,
      "order": null,
      "first_played": null,
      "video_url": null,
      "has_video": false,
      "apple_maps": "https://maps.apple.com/?q=1480%20Golf%20Course%20Road%2C%20Estes%20Park%2C%20CO%2080517",
      "google_maps": "https://www.google.com/maps/search/?api=1&query=1480%20Golf%20Course%20Road%2C%20Estes%20Park%2C%20CO%2080517"
    },
    {
      "id": 92,
      "name": "Evergreen Golf Course",
      "city": "Evergreen",
      "region": "Denver Area",
      "type": "Public",
      "address": "29614 Upper Bear Creek Rd, Evergreen, CO 80439",
      "lat": 39.6244,
      "lng": -105.3298,
      "played": false,
      "order": null,
      "first_played": null,
      "video_url": null,
      "has_video": false,
      "apple_maps": "https://maps.apple.com/?q=29614%20Upper%20Bear%20Creek%20Rd%2C%20Evergreen%2C%20CO%2080439",
      "google_maps": "https://www.google.com/maps/search/?api=1&query=29614%20Upper%20Bear%20Creek%20Rd%2C%20Evergreen%2C%20CO%2080439"
    },
    {
      "id": 93,
      "name": "F & H Golf Course",
      "city": "Fleming",
      "region": "Front Range North",
      "type": "Public",
      "address": "43355 County Rd 30 Fleming CO 80728",
      "lat": 40.6885,
      "lng": -102.8043,
      "played": false,
      "order": null,
      "first_played": null,
      "video_url": null,
      "has_video": false,
      "apple_maps": "https://maps.apple.com/?q=43355%20County%20Rd%2030%20Fleming%20CO%2080728",
      "google_maps": "https://www.google.com/maps/search/?api=1&query=43355%20County%20Rd%2030%20Fleming%20CO%2080728"
    },
    {
      "id": 94,
      "name": "Flatirons Golf Course",
      "city": "Boulder",
      "region": "Denver Area",
      "type": "Public",
      "address": "5706 Arapahoe Ave, Boulder, CO 80303",
      "lat": 40.0146,
      "lng": -105.2215,
      "played": false,
      "order": null,
      "first_played": null,
      "video_url": null,
      "has_video": false,
      "apple_maps": "https://maps.apple.com/?q=5706%20Arapahoe%20Ave%2C%20Boulder%2C%20CO%2080303",
      "google_maps": "https://www.google.com/maps/search/?api=1&query=5706%20Arapahoe%20Ave%2C%20Boulder%2C%20CO%2080303"
    },
    {
      "id": 95,
      "name": "Flying Horse, The Club at",
      "city": "Colorado Springs",
      "region": "Front Range South",
      "type": "Private",
      "address": "1880 Weiskopf Point, Colorado Springs, CO 80921",
      "lat": 39.0022,
      "lng": -104.8605,
      "played": false,
      "order": null,
      "first_played": null,
      "video_url": null,
      "has_video": false,
      "apple_maps": "https://maps.apple.com/?q=1880%20Weiskopf%20Point%2C%20Colorado%20Springs%2C%20CO%2080921",
      "google_maps": "https://www.google.com/maps/search/?api=1&query=1880%20Weiskopf%20Point%2C%20Colorado%20Springs%2C%20CO%2080921"
    },
    {
      "id": 96,
      "name": "Flying Horse, The Club at - North",
      "city": "Colorado Springs",
      "region": "Front Range South",
      "type": "Private",
      "address": "15268 Allen Ranch Road, Colorado Springs, CO 80908",
      "lat": 39.0553,
      "lng": -104.7497,
      "played": true,
      "order": 65,
      "first_played": "2024-04-29",
      "video_url": "https://www.instagram.com/reel/DQHKHZ1DqJH/?igsh=MWxxZXJsZmx3dmJ2NA==",
      "has_video": true,
      "apple_maps": "https://maps.apple.com/?q=15268%20Allen%20Ranch%20Road%2C%20Colorado%20Springs%2C%20CO%2080908",
      "google_maps": "https://www.google.com/maps/search/?api=1&query=15268%20Allen%20Ranch%20Road%2C%20Colorado%20Springs%2C%20CO%2080908"
    },
    {
      "id": 97,
      "name": "Foothils Championship 18",
      "city": "Denver",
      "region": "Denver Area",
      "type": "Public",
      "address": "3901 S Carr St, Denver, CO 80235",
      "lat": 39.644813,
      "lng": -105.092115,
      "played": false,
      "order": null,
      "first_played": null,
      "video_url": null,
      "has_video": false,
      "apple_maps": "https://maps.apple.com/?q=3901%20S%20Carr%20St%2C%20Denver%2C%20CO%2080235",
      "google_maps": "https://www.google.com/maps/search/?api=1&query=3901%20S%20Carr%20St%2C%20Denver%2C%20CO%2080235"
    },
    {
      "id": 98,
      "name": "Foothils Executive 9",
      "city": "Denver",
      "region": "Denver Area",
      "type": "Public",
      "address": "3901 S Carr St, Denver, CO 80235",
      "lat": 39.644329,
      "lng": -105.091976,
      "played": true,
      "order": 103,
      "first_played": "2025-06-27",
      "video_url": "https://www.instagram.com/reel/DMsWoW3RvFu/?utm_source=ig_web_copy_link&igsh=eHowemFieDJocW1q",
      "has_video": true,
      "apple_maps": "https://maps.apple.com/?q=3901%20S%20Carr%20St%2C%20Denver%2C%20CO%2080235",
      "google_maps": "https://www.google.com/maps/search/?api=1&query=3901%20S%20Carr%20St%2C%20Denver%2C%20CO%2080235"
    },
    {
      "id": 99,
      "name": "Foothils Par 3",
      "city": "Denver",
      "region": "Denver Area",
      "type": "Public",
      "address": "3901 S Carr St, Denver, CO 80235",
      "lat": 39.648057,
      "lng": -105.092905,
      "played": false,
      "order": null,
      "first_played": null,
      "video_url": null,
      "has_video": false,
      "apple_maps": "https://maps.apple.com/?q=3901%20S%20Carr%20St%2C%20Denver%2C%20CO%2080235",
      "google_maps": "https://www.google.com/maps/search/?api=1&query=3901%20S%20Carr%20St%2C%20Denver%2C%20CO%2080235"
    },
    {
      "id": 100,
      "name": "Fort Collins Country Club",
      "city": "Fort Collins",
      "region": "Front Range North",
      "type": "Private",
      "address": "1920 Country Club Rd, Fort Collins, CO 80524",
      "lat": 40.6127,
      "lng": -105.0416,
      "played": true,
      "order": 98,
      "first_played": "2025-06-03",
      "video_url": "https://www.instagram.com/reel/DL2TnqGNm3-/?utm_source=ig_web_copy_link&igsh=cTJ5MXNqbnQ1OWxz",
      "has_video": true,
      "apple_maps": "https://maps.apple.com/?q=1920%20Country%20Club%20Rd%2C%20Fort%20Collins%2C%20CO%2080524",
      "google_maps": "https://www.google.com/maps/search/?api=1&query=1920%20Country%20Club%20Rd%2C%20Fort%20Collins%2C%20CO%2080524"
    },
    {
      "id": 101,
      "name": "Fossil Trace Golf Club",
      "city": "Golden",
      "region": "Denver Area",
      "type": "Public",
      "address": "3050 Illinois St, Golden, CO 80401",
      "lat": 39.7556,
      "lng": -105.2221,
      "played": true,
      "order": 34,
      "first_played": "2022-05-08",
      "video_url": null,
      "has_video": false,
      "apple_maps": "https://maps.apple.com/?q=3050%20Illinois%20St%2C%20Golden%2C%20CO%2080401",
      "google_maps": "https://www.google.com/maps/search/?api=1&query=3050%20Illinois%20St%2C%20Golden%2C%20CO%2080401"
    },
    {
      "id": 102,
      "name": "Four Mile Ranch Golf Club",
      "city": "Canon City",
      "region": "Mountain Area",
      "type": "Public",
      "address": "3501 Telegraph Trail, Cañon City, CO 81212",
      "lat": 38.4768,
      "lng": -105.1905,
      "played": true,
      "order": 18,
      "first_played": "2019-12-24",
      "video_url": null,
      "has_video": false,
      "apple_maps": "https://maps.apple.com/?q=3501%20Telegraph%20Trail%2C%20Ca%C3%B1on%20City%2C%20CO%2081212",
      "google_maps": "https://www.google.com/maps/search/?api=1&query=3501%20Telegraph%20Trail%2C%20Ca%C3%B1on%20City%2C%20CO%2081212"
    },
    {
      "id": 103,
      "name": "Fox Acres Country Club",
      "city": "Red Feather Lakes",
      "region": "Denver Area",
      "type": "Private",
      "address": "1700 County Road 67J, Red Feather Lakes, CO 80545",
      "lat": 40.8134,
      "lng": -105.5728,
      "played": false,
      "order": null,
      "first_played": null,
      "video_url": null,
      "has_video": false,
      "apple_maps": "https://maps.apple.com/?q=1700%20County%20Road%2067J%2C%20Red%20Feather%20Lakes%2C%20CO%2080545",
      "google_maps": "https://www.google.com/maps/search/?api=1&query=1700%20County%20Road%2067J%2C%20Red%20Feather%20Lakes%2C%20CO%2080545"
    },
    {
      "id": 104,
      "name": "Fox Hill Club, The",
      "city": "Longmont",
      "region": "Front Range North",
      "type": "Private",
      "address": "1400 CO-119, Longmont, CO 80504",
      "lat": 40.1889,
      "lng": -105.0996,
      "played": false,
      "order": null,
      "first_played": null,
      "video_url": null,
      "has_video": false,
      "apple_maps": "https://maps.apple.com/?q=1400%20CO-119%2C%20Longmont%2C%20CO%2080504",
      "google_maps": "https://www.google.com/maps/search/?api=1&query=1400%20CO-119%2C%20Longmont%2C%20CO%2080504"
    },
    {
      "id": 105,
      "name": "Fox Hollow Golf Course - Canyon",
      "city": "Lakewood",
      "region": "Denver Area",
      "type": "Public",
      "address": "13410 W. Morrison Rd, Lakewood, CO 80228",
      "lat": 39.6532,
      "lng": -105.1509,
      "played": true,
      "order": 82,
      "first_played": "2025-03-24",
      "video_url": null,
      "has_video": false,
      "apple_maps": "https://maps.apple.com/?q=13410%20W.%20Morrison%20Rd%2C%20Lakewood%2C%20CO%2080228",
      "google_maps": "https://www.google.com/maps/search/?api=1&query=13410%20W.%20Morrison%20Rd%2C%20Lakewood%2C%20CO%2080228"
    },
    {
      "id": 106,
      "name": "Fox Hollow Golf Course - Links",
      "city": "Lakewood",
      "region": "Denver Area",
      "type": "Public",
      "address": "13410 W. Morrison Rd, Lakewood, CO 80228",
      "lat": 39.6532,
      "lng": -105.1509,
      "played": true,
      "order": 83,
      "first_played": "2025-03-24",
      "video_url": null,
      "has_video": false,
      "apple_maps": "https://maps.apple.com/?q=13410%20W.%20Morrison%20Rd%2C%20Lakewood%2C%20CO%2080228",
      "google_maps": "https://www.google.com/maps/search/?api=1&query=13410%20W.%20Morrison%20Rd%2C%20Lakewood%2C%20CO%2080228"
    },
    {
      "id": 107,
      "name": "Fox Hollow Golf Course - Meadow",
      "city": "Lakewood",
      "region": "Denver Area",
      "type": "Public",
      "address": "13410 W. Morrison Rd, Lakewood, CO 80228",
      "lat": 39.6532,
      "lng": -105.1509,
      "played": false,
      "order": null,
      "first_played": null,
      "video_url": null,
      "has_video": false,
      "apple_maps": "https://maps.apple.com/?q=13410%20W.%20Morrison%20Rd%2C%20Lakewood%2C%20CO%2080228",
      "google_maps": "https://www.google.com/maps/search/?api=1&query=13410%20W.%20Morrison%20Rd%2C%20Lakewood%2C%20CO%2080228"
    },
    {
      "id": 108,
      "name": "Frost Creek",
      "city": "Eagle",
      "region": "Mountain Area",
      "type": "Private",
      "address": "1094 Frost Creek Drive, Eagle, CO 81631",
      "lat": 39.6158,
      "lng": -106.7724,
      "played": false,
      "order": null,
      "first_played": null,
      "video_url": null,
      "has_video": false,
      "apple_maps": "https://maps.apple.com/?q=1094%20Frost%20Creek%20Drive%2C%20Eagle%2C%20CO%2081631",
      "google_maps": "https://www.google.com/maps/search/?api=1&query=1094%20Frost%20Creek%20Drive%2C%20Eagle%2C%20CO%2081631"
    },
    {
      "id": 109,
      "name": "Garfield County Golf Course",
      "city": "Rifle",
      "region": "Mountain Area",
      "type": "Public",
      "address": "3004 Highway 325, Rifle, CO 81650",
      "lat": 39.5414,
      "lng": -107.7912,
      "played": false,
      "order": null,
      "first_played": null,
      "video_url": null,
      "has_video": false,
      "apple_maps": "https://maps.apple.com/?q=3004%20Highway%20325%2C%20Rifle%2C%20CO%2081650",
      "google_maps": "https://www.google.com/maps/search/?api=1&query=3004%20Highway%20325%2C%20Rifle%2C%20CO%2081650"
    },
    {
      "id": 110,
      "name": "Glacier Club, The",
      "city": "Durango",
      "region": "West Slope",
      "type": "Private",
      "address": "600 Glacier Club Drive, Durango, CO 81301",
      "lat": 37.5337,
      "lng": -107.8335,
      "played": false,
      "order": null,
      "first_played": null,
      "video_url": null,
      "has_video": false,
      "apple_maps": "https://maps.apple.com/?q=600%20Glacier%20Club%20Drive%2C%20Durango%2C%20CO%2081301",
      "google_maps": "https://www.google.com/maps/search/?api=1&query=600%20Glacier%20Club%20Drive%2C%20Durango%2C%20CO%2081301"
    },
    {
      "id": 111,
      "name": "Glenmoor Country Club",
      "city": "Cherry Hills Village",
      "region": "Denver Area",
      "type": "Private",
      "address": "110 Glenmoor Drive, Cherry Hills Village, CO 80113",
      "lat": 39.6415,
      "lng": -104.958,
      "played": true,
      "order": 86,
      "first_played": "2025-04-16",
      "video_url": "https://www.instagram.com/reel/DIjFLtNx1d-/?igsh=aXZ6NW9vc2wxZm83",
      "has_video": true,
      "apple_maps": "https://maps.apple.com/?q=110%20Glenmoor%20Drive%2C%20Cherry%20Hills%20Village%2C%20CO%2080113",
      "google_maps": "https://www.google.com/maps/search/?api=1&query=110%20Glenmoor%20Drive%2C%20Cherry%20Hills%20Village%2C%20CO%2080113"
    },
    {
      "id": 112,
      "name": "Glenwood Springs Golf Club",
      "city": "Glenwood Springs",
      "region": "Mountain Area",
      "type": "Public",
      "address": "193 Sunny Acres Rd, Glenwood Springs, CO 81601",
      "lat": 39.5489,
      "lng": -107.3251,
      "played": false,
      "order": null,
      "first_played": null,
      "video_url": null,
      "has_video": false,
      "apple_maps": "https://maps.apple.com/?q=193%20Sunny%20Acres%20Rd%2C%20Glenwood%20Springs%2C%20CO%2081601",
      "google_maps": "https://www.google.com/maps/search/?api=1&query=193%20Sunny%20Acres%20Rd%2C%20Glenwood%20Springs%2C%20CO%2081601"
    },
    {
      "id": 113,
      "name": "Granby Ranch",
      "city": "Granby",
      "region": "Mountain Area",
      "type": "Public",
      "address": "2579 County Road 894, Granby, CO 80446",
      "lat": 40.1046,
      "lng": -105.9395,
      "played": false,
      "order": null,
      "first_played": null,
      "video_url": null,
      "has_video": false,
      "apple_maps": "https://maps.apple.com/?q=2579%20County%20Road%20894%2C%20Granby%2C%20CO%2080446",
      "google_maps": "https://www.google.com/maps/search/?api=1&query=2579%20County%20Road%20894%2C%20Granby%2C%20CO%2080446"
    },
    {
      "id": 114,
      "name": "Grand Elk Golf Club",
      "city": "Granby",
      "region": "Mountain Area",
      "type": "Semi-Private",
      "address": "1300 Ten Mile Drive, Granby, CO 80446",
      "lat": 40.1098,
      "lng": -105.9337,
      "played": false,
      "order": null,
      "first_played": null,
      "video_url": null,
      "has_video": false,
      "apple_maps": "https://maps.apple.com/?q=1300%20Ten%20Mile%20Drive%2C%20Granby%2C%20CO%2080446",
      "google_maps": "https://www.google.com/maps/search/?api=1&query=1300%20Ten%20Mile%20Drive%2C%20Granby%2C%20CO%2080446"
    },
    {
      "id": 115,
      "name": "Grand Lake Golf Course",
      "city": "Grand Lake",
      "region": "Mountain Area",
      "type": "Public",
      "address": "1415 County Road 48, Grand Lake, CO 80447",
      "lat": 40.2412,
      "lng": -105.8329,
      "played": false,
      "order": null,
      "first_played": null,
      "video_url": null,
      "has_video": false,
      "apple_maps": "https://maps.apple.com/?q=1415%20County%20Road%2048%2C%20Grand%20Lake%2C%20CO%2080447",
      "google_maps": "https://www.google.com/maps/search/?api=1&query=1415%20County%20Road%2048%2C%20Grand%20Lake%2C%20CO%2080447"
    },
    {
      "id": 116,
      "name": "Grand View Golf Course",
      "city": "Mead",
      "region": "Front Range North",
      "type": "Private",
      "address": "Grand View Cir, Mead, CO 80542",
      "lat": 40.2156,
      "lng": -104.9984,
      "played": false,
      "order": null,
      "first_played": null,
      "video_url": null,
      "has_video": false,
      "apple_maps": "https://maps.apple.com/?q=Grand%20View%20Cir%2C%20Mead%2C%20CO%2080542",
      "google_maps": "https://www.google.com/maps/search/?api=1&query=Grand%20View%20Cir%2C%20Mead%2C%20CO%2080542"
    },
    {
      "id": 117,
      "name": "Grandote Peaks Golf Club",
      "city": "La Veta",
      "region": "West Slope",
      "type": "Public",
      "address": "5540 CO-12, La Veta, CO 81055",
      "lat": 37.4963,
      "lng": -105.0102,
      "played": false,
      "order": null,
      "first_played": null,
      "video_url": null,
      "has_video": false,
      "apple_maps": "https://maps.apple.com/?q=5540%20CO-12%2C%20La%20Veta%2C%20CO%2081055",
      "google_maps": "https://www.google.com/maps/search/?api=1&query=5540%20CO-12%2C%20La%20Veta%2C%20CO%2081055"
    },
    {
      "id": 118,
      "name": "Greeley Country Club",
      "city": "Greeley",
      "region": "Front Range North",
      "type": "Private",
      "address": "4500 W 10th St, Greeley, CO 80634",
      "lat": 40.4235,
      "lng": -104.7597,
      "played": true,
      "order": 114,
      "first_played": "2025-08-29",
      "video_url": "https://www.instagram.com/reel/DOuHm3NgSXb/?igsh=MW5yYWxxbWNvaWI5bA==",
      "has_video": true,
      "apple_maps": "https://maps.apple.com/?q=4500%20W%2010th%20St%2C%20Greeley%2C%20CO%2080634",
      "google_maps": "https://www.google.com/maps/search/?api=1&query=4500%20W%2010th%20St%2C%20Greeley%2C%20CO%2080634"
    },
    {
      "id": 119,
      "name": "Green Valley Ranch Golf Club",
      "city": "Denver",
      "region": "Denver Area",
      "type": "Public",
      "address": "4900 Himalaya Road, Denver, CO 80249",
      "lat": 39.7883,
      "lng": -104.7427,
      "played": true,
      "order": 25,
      "first_played": "2021-06-27",
      "video_url": null,
      "has_video": false,
      "apple_maps": "https://maps.apple.com/?q=4900%20Himalaya%20Road%2C%20Denver%2C%20CO%2080249",
      "google_maps": "https://www.google.com/maps/search/?api=1&query=4900%20Himalaya%20Road%2C%20Denver%2C%20CO%2080249"
    },
    {
      "id": 120,
      "name": "Green Valley Ranch Golf Club - Par 3",
      "city": "Denver",
      "region": "Denver Area",
      "type": "Public",
      "address": "4900 Himalaya Road, Denver, CO 80249",
      "lat": 39.783337,
      "lng": -104.753966,
      "played": false,
      "order": null,
      "first_played": null,
      "video_url": null,
      "has_video": false,
      "apple_maps": "https://maps.apple.com/?q=4900%20Himalaya%20Road%2C%20Denver%2C%20CO%2080249",
      "google_maps": "https://www.google.com/maps/search/?api=1&query=4900%20Himalaya%20Road%2C%20Denver%2C%20CO%2080249"
    },
    {
      "id": 121,
      "name": "Greenway Park Golf Course",
      "city": "Broomfield",
      "region": "Denver Area",
      "type": "Public",
      "address": "110 Greenway Drive, Broomfield, CO 80020",
      "lat": 39.9207,
      "lng": -105.0864,
      "played": false,
      "order": null,
      "first_played": null,
      "video_url": null,
      "has_video": false,
      "apple_maps": "https://maps.apple.com/?q=110%20Greenway%20Drive%2C%20Broomfield%2C%20CO%2080020",
      "google_maps": "https://www.google.com/maps/search/?api=1&query=110%20Greenway%20Drive%2C%20Broomfield%2C%20CO%2080020"
    },
    {
      "id": 122,
      "name": "Greg Mastriona Golf Courses at Hyland Hills - Blue",
      "city": "Westminster",
      "region": "Denver Area",
      "type": "Public",
      "address": "9650 Sheridan Boulevard, Westminster, CO 80031",
      "lat": 39.8695,
      "lng": -105.0537,
      "played": false,
      "order": null,
      "first_played": null,
      "video_url": null,
      "has_video": false,
      "apple_maps": "https://maps.apple.com/?q=9650%20Sheridan%20Boulevard%2C%20Westminster%2C%20CO%2080031",
      "google_maps": "https://www.google.com/maps/search/?api=1&query=9650%20Sheridan%20Boulevard%2C%20Westminster%2C%20CO%2080031"
    },
    {
      "id": 123,
      "name": "Greg Mastriona Golf Courses at Hyland Hills - Gold",
      "city": "Westminster",
      "region": "Denver Area",
      "type": "Public",
      "address": "9650 Sheridan Boulevard, Westminster, CO 80031",
      "lat": 39.8695,
      "lng": -105.0537,
      "played": false,
      "order": null,
      "first_played": null,
      "video_url": null,
      "has_video": false,
      "apple_maps": "https://maps.apple.com/?q=9650%20Sheridan%20Boulevard%2C%20Westminster%2C%20CO%2080031",
      "google_maps": "https://www.google.com/maps/search/?api=1&query=9650%20Sheridan%20Boulevard%2C%20Westminster%2C%20CO%2080031"
    },
    {
      "id": 124,
      "name": "Gypsum Creek Golf Course",
      "city": "Gypsum",
      "region": "Mountain Area",
      "type": "Public",
      "address": "530 Cotton Ranch Drive, Gypsum, CO 81637",
      "lat": 39.6363,
      "lng": -106.9584,
      "played": false,
      "order": null,
      "first_played": null,
      "video_url": null,
      "has_video": false,
      "apple_maps": "https://maps.apple.com/?q=530%20Cotton%20Ranch%20Drive%2C%20Gypsum%2C%20CO%2081637",
      "google_maps": "https://www.google.com/maps/search/?api=1&query=530%20Cotton%20Ranch%20Drive%2C%20Gypsum%2C%20CO%2081637"
    },
    {
      "id": 125,
      "name": "Harmony Club",
      "city": "Timnath",
      "region": "Front Range North",
      "type": "Private",
      "address": "6432 Grand Tree Blvd, Timnath, CO 80547",
      "lat": 40.5287,
      "lng": -104.9751,
      "played": true,
      "order": 109,
      "first_played": "2025-08-08",
      "video_url": "https://www.instagram.com/reel/DNy53J3NYCb/?igsh=MXRnbWYxcDQwMWcxOQ==",
      "has_video": true,
      "apple_maps": "https://maps.apple.com/?q=6432%20Grand%20Tree%20Blvd%2C%20Timnath%2C%20CO%2080547",
      "google_maps": "https://www.google.com/maps/search/?api=1&query=6432%20Grand%20Tree%20Blvd%2C%20Timnath%2C%20CO%2080547"
    },
    {
      "id": 126,
      "name": "Harvard Gulch Golf Course",
      "city": "Denver",
      "region": "Denver Area",
      "type": "Public",
      "address": "660 E. Iliff Ave, Denver, CO 80210",
      "lat": 39.6756,
      "lng": -104.9793,
      "played": true,
      "order": 38,
      "first_played": "2022-07-23",
      "video_url": "https://www.instagram.com/reel/DOtZN9Q3KXh/?igsh=MXcwZ2xsNG1hZXI2aA==",
      "has_video": true,
      "apple_maps": "https://maps.apple.com/?q=660%20E.%20Iliff%20Ave%2C%20Denver%2C%20CO%2080210",
      "google_maps": "https://www.google.com/maps/search/?api=1&query=660%20E.%20Iliff%20Ave%2C%20Denver%2C%20CO%2080210"
    },
    {
      "id": 127,
      "name": "Haymaker Golf Course",
      "city": "Steamboat Springs",
      "region": "Mountain Area",
      "type": "Public",
      "address": "34855 US-40 East, Steamboat Springs, CO 80487",
      "lat": 40.4826,
      "lng": -106.7448,
      "played": false,
      "order": null,
      "first_played": null,
      "video_url": null,
      "has_video": false,
      "apple_maps": "https://maps.apple.com/?q=34855%20US-40%20East%2C%20Steamboat%20Springs%2C%20CO%2080487",
      "google_maps": "https://www.google.com/maps/search/?api=1&query=34855%20US-40%20East%2C%20Steamboat%20Springs%2C%20CO%2080487"
    },
    {
      "id": 128,
      "name": "Heather Gardens Golf Course",
      "city": "Aurora",
      "region": "Denver Area",
      "type": "Public",
      "address": "2888 S Heather Gardens Way, Aurora, CO 80014",
      "lat": 39.6647,
      "lng": -104.8304,
      "played": false,
      "order": null,
      "first_played": null,
      "video_url": null,
      "has_video": false,
      "apple_maps": "https://maps.apple.com/?q=2888%20S%20Heather%20Gardens%20Way%2C%20Aurora%2C%20CO%2080014",
      "google_maps": "https://www.google.com/maps/search/?api=1&query=2888%20S%20Heather%20Gardens%20Way%2C%20Aurora%2C%20CO%2080014"
    },
    {
      "id": 129,
      "name": "Heather Ridge, The Golf Club at",
      "city": "Aurora",
      "region": "Denver Area",
      "type": "Public",
      "address": "13521 E Iliff Ave, Aurora, CO 80014",
      "lat": 39.675,
      "lng": -104.8316,
      "played": true,
      "order": 123,
      "first_played": "2025-11-15",
      "video_url": "https://www.instagram.com/p/DSkaoOBDvds/",
      "has_video": true,
      "apple_maps": "https://maps.apple.com/?q=13521%20E%20Iliff%20Ave%2C%20Aurora%2C%20CO%2080014",
      "google_maps": "https://www.google.com/maps/search/?api=1&query=13521%20E%20Iliff%20Ave%2C%20Aurora%2C%20CO%2080014"
    },
    {
      "id": 130,
      "name": "Hemingway Hunting & Fishing Resort",
      "city": "Orchard",
      "region": "Front Range North",
      "type": "Private",
      "address": "Unnamed Road, Orchard, CO 80649",
      "lat": 40.3382,
      "lng": -104.1749,
      "played": false,
      "order": null,
      "first_played": null,
      "video_url": null,
      "has_video": false,
      "apple_maps": "https://maps.apple.com/?q=Unnamed%20Road%2C%20Orchard%2C%20CO%2080649",
      "google_maps": "https://www.google.com/maps/search/?api=1&query=Unnamed%20Road%2C%20Orchard%2C%20CO%2080649"
    },
    {
      "id": 131,
      "name": "Heritage Eagle Bend Golf Club",
      "city": "Aurora",
      "region": "Denver Area",
      "type": "Public",
      "address": "23155 E Heritage Parkway, Aurora, CO 80016",
      "lat": 39.5367,
      "lng": -104.7158,
      "played": true,
      "order": 43,
      "first_played": "2022-10-10",
      "video_url": "https://www.instagram.com/p/DRw7V8_jp_R/",
      "has_video": true,
      "apple_maps": "https://maps.apple.com/?q=23155%20E%20Heritage%20Parkway%2C%20Aurora%2C%20CO%2080016",
      "google_maps": "https://www.google.com/maps/search/?api=1&query=23155%20E%20Heritage%20Parkway%2C%20Aurora%2C%20CO%2080016"
    },
    {
      "id": 132,
      "name": "Highland Meadows Golf Course",
      "city": "Windsor",
      "region": "Front Range North",
      "type": "Public",
      "address": "6300 Highland Meadows Parkway, Windsor, CO 80550",
      "lat": 40.4518,
      "lng": -104.9302,
      "played": false,
      "order": null,
      "first_played": null,
      "video_url": null,
      "has_video": false,
      "apple_maps": "https://maps.apple.com/?q=6300%20Highland%20Meadows%20Parkway%2C%20Windsor%2C%20CO%2080550",
      "google_maps": "https://www.google.com/maps/search/?api=1&query=6300%20Highland%20Meadows%20Parkway%2C%20Windsor%2C%20CO%2080550"
    },
    {
      "id": 133,
      "name": "Highlands Hills Golf Course",
      "city": "Greeley",
      "region": "Front Range North",
      "type": "Public",
      "address": "2200 Clubhouse Drive, Greeley, CO 80634",
      "lat": 40.4181,
      "lng": -104.7745,
      "played": false,
      "order": null,
      "first_played": null,
      "video_url": null,
      "has_video": false,
      "apple_maps": "https://maps.apple.com/?q=2200%20Clubhouse%20Drive%2C%20Greeley%2C%20CO%2080634",
      "google_maps": "https://www.google.com/maps/search/?api=1&query=2200%20Clubhouse%20Drive%2C%20Greeley%2C%20CO%2080634"
    },
    {
      "id": 134,
      "name": "Highlands Ranch Golf Club",
      "city": "Highlands Ranch",
      "region": "Denver Area",
      "type": "Public",
      "address": "9000 Creekside Way, Highlands Ranch, CO 80129",
      "lat": 39.5534,
      "lng": -105.0165,
      "played": true,
      "order": 28,
      "first_played": "2021-07-23",
      "video_url": null,
      "has_video": false,
      "apple_maps": "https://maps.apple.com/?q=9000%20Creekside%20Way%2C%20Highlands%20Ranch%2C%20CO%2080129",
      "google_maps": "https://www.google.com/maps/search/?api=1&query=9000%20Creekside%20Way%2C%20Highlands%20Ranch%2C%20CO%2080129"
    },
    {
      "id": 135,
      "name": "Hillcrest Golf Club",
      "city": "Durango",
      "region": "West Slope",
      "type": "Public",
      "address": "2300 Rim Drive, Durango, CO 81301",
      "lat": 37.3046,
      "lng": -107.8801,
      "played": false,
      "order": null,
      "first_played": null,
      "video_url": null,
      "has_video": false,
      "apple_maps": "https://maps.apple.com/?q=2300%20Rim%20Drive%2C%20Durango%2C%20CO%2081301",
      "google_maps": "https://www.google.com/maps/search/?api=1&query=2300%20Rim%20Drive%2C%20Durango%2C%20CO%2081301"
    },
    {
      "id": 136,
      "name": "Hiwan Golf Club",
      "city": "Evergreen",
      "region": "Denver Area",
      "type": "Private",
      "address": "30671 Clubhouse Lane, Evergreen, CO 80439",
      "lat": 39.6498,
      "lng": -105.3362,
      "played": true,
      "order": 70,
      "first_played": "2024-07-02",
      "video_url": "https://www.instagram.com/p/DM7v9xDsyaI/",
      "has_video": true,
      "apple_maps": "https://maps.apple.com/?q=30671%20Clubhouse%20Lane%2C%20Evergreen%2C%20CO%2080439",
      "google_maps": "https://www.google.com/maps/search/?api=1&query=30671%20Clubhouse%20Lane%2C%20Evergreen%2C%20CO%2080439"
    },
    {
      "id": 137,
      "name": "Holydot Golf Course",
      "city": "Colorado City",
      "region": "Front Range South",
      "type": "Public",
      "address": "55 North Parkway Drive, Colorado City, CO 81019",
      "lat": 37.9456,
      "lng": -104.8288,
      "played": false,
      "order": null,
      "first_played": null,
      "video_url": null,
      "has_video": false,
      "apple_maps": "https://maps.apple.com/?q=55%20North%20Parkway%20Drive%2C%20Colorado%20City%2C%20CO%2081019",
      "google_maps": "https://www.google.com/maps/search/?api=1&query=55%20North%20Parkway%20Drive%2C%20Colorado%20City%2C%20CO%2081019"
    },
    {
      "id": 138,
      "name": "Holyoke Golf Club",
      "city": "Holyoke",
      "region": "Front Range North",
      "type": "Public",
      "address": "415 E Carnahan St, Holyoke, CO 80734",
      "lat": 40.5837,
      "lng": -102.3025,
      "played": false,
      "order": null,
      "first_played": null,
      "video_url": null,
      "has_video": false,
      "apple_maps": "https://maps.apple.com/?q=415%20E%20Carnahan%20St%2C%20Holyoke%2C%20CO%2080734",
      "google_maps": "https://www.google.com/maps/search/?api=1&query=415%20E%20Carnahan%20St%2C%20Holyoke%2C%20CO%2080734"
    },
    {
      "id": 139,
      "name": "Homestead Golf Course",
      "city": "Lakewood",
      "region": "Denver Area",
      "type": "Public",
      "address": "11500 W Hampden Ave, Lakewood, CO 80227",
      "lat": 39.6531,
      "lng": -105.1253,
      "played": false,
      "order": null,
      "first_played": null,
      "video_url": null,
      "has_video": false,
      "apple_maps": "https://maps.apple.com/?q=11500%20W%20Hampden%20Ave%2C%20Lakewood%2C%20CO%2080227",
      "google_maps": "https://www.google.com/maps/search/?api=1&query=11500%20W%20Hampden%20Ave%2C%20Lakewood%2C%20CO%2080227"
    },
    {
      "id": 140,
      "name": "Hugo Golf Club",
      "city": "Hugo",
      "region": "Front Range South",
      "type": "Public",
      "address": "44161 County Highway 109, Hugo, CO 80821",
      "lat": 38.9735,
      "lng": -103.4824,
      "played": true,
      "order": 107,
      "first_played": "2025-07-31",
      "video_url": "https://www.instagram.com/p/DNfwiNjNrrJ/",
      "has_video": true,
      "apple_maps": "https://maps.apple.com/?q=44161%20County%20Highway%20109%2C%20Hugo%2C%20CO%2080821",
      "google_maps": "https://www.google.com/maps/search/?api=1&query=44161%20County%20Highway%20109%2C%20Hugo%2C%20CO%2080821"
    },
    {
      "id": 141,
      "name": "Hunter’s Run Golf Course",
      "city": "Ignacio",
      "region": "West Slope",
      "type": "Public",
      "address": "8400 State Highway 172, Ignacio, CO 81137",
      "lat": 37.1274,
      "lng": -107.6383,
      "played": false,
      "order": null,
      "first_played": null,
      "video_url": null,
      "has_video": false,
      "apple_maps": "https://maps.apple.com/?q=8400%20State%20Highway%20172%2C%20Ignacio%2C%20CO%2081137",
      "google_maps": "https://www.google.com/maps/search/?api=1&query=8400%20State%20Highway%20172%2C%20Ignacio%2C%20CO%2081137"
    },
    {
      "id": 142,
      "name": "Hyland Hills Sotuh Par 3",
      "city": "Westminster",
      "region": "Denver Area",
      "type": "Public",
      "address": "9650 Sheridan Boulevard, Westminster, CO 80031",
      "lat": 39.872949,
      "lng": -105.051611,
      "played": true,
      "order": 87,
      "first_played": "2025-04-19",
      "video_url": "https://www.instagram.com/reel/DIqzdBRxq5K/?igsh=NGo1Z285bWJ0dXNp",
      "has_video": true,
      "apple_maps": "https://maps.apple.com/?q=9650%20Sheridan%20Boulevard%2C%20Westminster%2C%20CO%2080031",
      "google_maps": "https://www.google.com/maps/search/?api=1&query=9650%20Sheridan%20Boulevard%2C%20Westminster%2C%20CO%2080031"
    },
    {
      "id": 143,
      "name": "Indian Hills Golf Course",
      "city": "Yuma",
      "region": "Front Range North",
      "type": "Public",
      "address": "5294 County Rd 39, Yuma, CO 80759",
      "lat": 40.1226,
      "lng": -102.7242,
      "played": false,
      "order": null,
      "first_played": null,
      "video_url": null,
      "has_video": false,
      "apple_maps": "https://maps.apple.com/?q=5294%20County%20Rd%2039%2C%20Yuma%2C%20CO%2080759",
      "google_maps": "https://www.google.com/maps/search/?api=1&query=5294%20County%20Rd%2039%2C%20Yuma%2C%20CO%2080759"
    },
    {
      "id": 144,
      "name": "Indian Peaks Golf Course",
      "city": "Lafayette",
      "region": "Denver Area",
      "type": "Public",
      "address": "2300 Indian Peaks Trail, Lafayette, CO 80026",
      "lat": 39.9987,
      "lng": -105.1025,
      "played": false,
      "order": null,
      "first_played": null,
      "video_url": null,
      "has_video": false,
      "apple_maps": "https://maps.apple.com/?q=2300%20Indian%20Peaks%20Trail%2C%20Lafayette%2C%20CO%2080026",
      "google_maps": "https://www.google.com/maps/search/?api=1&query=2300%20Indian%20Peaks%20Trail%2C%20Lafayette%2C%20CO%2080026"
    },
    {
      "id": 145,
      "name": "Indian Tree Golf Club",
      "city": "Arvada",
      "region": "Denver Area",
      "type": "Public",
      "address": "7555 Wadsworth Blvd, Arvada, CO 80003",
      "lat": 39.832512,
      "lng": -105.086694,
      "played": true,
      "order": 75,
      "first_played": "2024-11-18",
      "video_url": null,
      "has_video": false,
      "apple_maps": "https://maps.apple.com/?q=7555%20Wadsworth%20Blvd%2C%20Arvada%2C%20CO%2080003",
      "google_maps": "https://www.google.com/maps/search/?api=1&query=7555%20Wadsworth%20Blvd%2C%20Arvada%2C%20CO%2080003"
    },
    {
      "id": 146,
      "name": "Indian Tree Golf Club - Par 3",
      "city": "Arvada",
      "region": "Denver Area",
      "type": "Public",
      "address": "7555 Wadsworth Blvd, Arvada, CO 80003",
      "lat": 39.834584,
      "lng": -105.084051,
      "played": false,
      "order": null,
      "first_played": null,
      "video_url": null,
      "has_video": false,
      "apple_maps": "https://maps.apple.com/?q=7555%20Wadsworth%20Blvd%2C%20Arvada%2C%20CO%2080003",
      "google_maps": "https://www.google.com/maps/search/?api=1&query=7555%20Wadsworth%20Blvd%2C%20Arvada%2C%20CO%2080003"
    },
    {
      "id": 147,
      "name": "Inverness Hotel Golf Club",
      "city": "Englewood",
      "region": "Denver Area",
      "type": "Private",
      "address": "200 Inverness Dr W, Englewood, CO 80112",
      "lat": 39.5773,
      "lng": -104.8607,
      "played": true,
      "order": 72,
      "first_played": "2024-08-12",
      "video_url": "https://www.instagram.com/reel/DKamS0ut3rP/?utm_source=ig_web_copy_link&igsh=aWZ1MDZkazVwbmM3",
      "has_video": true,
      "apple_maps": "https://maps.apple.com/?q=200%20Inverness%20Dr%20W%2C%20Englewood%2C%20CO%2080112",
      "google_maps": "https://www.google.com/maps/search/?api=1&query=200%20Inverness%20Dr%20W%2C%20Englewood%2C%20CO%2080112"
    },
    {
      "id": 148,
      "name": "Ironbridge Golf Club",
      "city": "Glenwood Springs",
      "region": "Mountain Area",
      "type": "Public",
      "address": "430 Iron Bridge Rd, Glenwood Springs, CO 81601",
      "lat": 39.5661,
      "lng": -107.3409,
      "played": false,
      "order": null,
      "first_played": null,
      "video_url": null,
      "has_video": false,
      "apple_maps": "https://maps.apple.com/?q=430%20Iron%20Bridge%20Rd%2C%20Glenwood%20Springs%2C%20CO%2081601",
      "google_maps": "https://www.google.com/maps/search/?api=1&query=430%20Iron%20Bridge%20Rd%2C%20Glenwood%20Springs%2C%20CO%2081601"
    },
    {
      "id": 149,
      "name": "Kennedy Golf Course - Babe",
      "city": "Denver",
      "region": "Denver Area",
      "type": "Public",
      "address": "10500 E Hampden Ave, Denver, CO 80014",
      "lat": 39.65443,
      "lng": -104.861275,
      "played": true,
      "order": 48,
      "first_played": "2023-06-29",
      "video_url": null,
      "has_video": false,
      "apple_maps": "https://maps.apple.com/?q=10500%20E%20Hampden%20Ave%2C%20Denver%2C%20CO%2080014",
      "google_maps": "https://www.google.com/maps/search/?api=1&query=10500%20E%20Hampden%20Ave%2C%20Denver%2C%20CO%2080014"
    },
    {
      "id": 150,
      "name": "Kennedy Golf Course - Creek",
      "city": "Denver",
      "region": "Denver Area",
      "type": "Public",
      "address": "10500 E Hampden Ave, Denver, CO 80014",
      "lat": 39.65683,
      "lng": -104.863529,
      "played": true,
      "order": 49,
      "first_played": "2023-06-29",
      "video_url": null,
      "has_video": false,
      "apple_maps": "https://maps.apple.com/?q=10500%20E%20Hampden%20Ave%2C%20Denver%2C%20CO%2080014",
      "google_maps": "https://www.google.com/maps/search/?api=1&query=10500%20E%20Hampden%20Ave%2C%20Denver%2C%20CO%2080014"
    },
    {
      "id": 151,
      "name": "Kennedy Golf Course - Lind",
      "city": "Denver",
      "region": "Denver Area",
      "type": "Public",
      "address": "10500 E Hampden Ave, Denver, CO 80014",
      "lat": 39.651778,
      "lng": -104.864007,
      "played": false,
      "order": null,
      "first_played": null,
      "video_url": null,
      "has_video": false,
      "apple_maps": "https://maps.apple.com/?q=10500%20E%20Hampden%20Ave%2C%20Denver%2C%20CO%2080014",
      "google_maps": "https://www.google.com/maps/search/?api=1&query=10500%20E%20Hampden%20Ave%2C%20Denver%2C%20CO%2080014"
    },
    {
      "id": 152,
      "name": "Kennedy Golf Course - Par 3",
      "city": "Denver",
      "region": "Denver Area",
      "type": "Public",
      "address": "10500 E Hampden Ave, Denver, CO 80014",
      "lat": 39.65173,
      "lng": -104.867191,
      "played": true,
      "order": 122,
      "first_played": "2025-11-11",
      "video_url": "https://www.instagram.com/p/DSAVQ_Jjh82/",
      "has_video": true,
      "apple_maps": "https://maps.apple.com/?q=10500%20E%20Hampden%20Ave%2C%20Denver%2C%20CO%2080014",
      "google_maps": "https://www.google.com/maps/search/?api=1&query=10500%20E%20Hampden%20Ave%2C%20Denver%2C%20CO%2080014"
    },
    {
      "id": 153,
      "name": "Kennedy Golf Course - West",
      "city": "Denver",
      "region": "Denver Area",
      "type": "Public",
      "address": "10500 E Hampden Ave, Denver, CO 80014",
      "lat": 39.6524,
      "lng": -104.871267,
      "played": true,
      "order": 92,
      "first_played": "2025-05-15",
      "video_url": "https://www.instagram.com/reel/DKJ434etlm3/?utm_source=ig_web_copy_link&igsh=MWw1Z3VsZG4wOWsxYg==",
      "has_video": true,
      "apple_maps": "https://maps.apple.com/?q=10500%20E%20Hampden%20Ave%2C%20Denver%2C%20CO%2080014",
      "google_maps": "https://www.google.com/maps/search/?api=1&query=10500%20E%20Hampden%20Ave%2C%20Denver%2C%20CO%2080014"
    },
    {
      "id": 154,
      "name": "Keystone Ranch Golf Course",
      "city": "Keystone",
      "region": "Mountain Area",
      "type": "Resort",
      "address": "1239 Keystone Ranch Rd, Keystone, CO 80435",
      "lat": 39.6087,
      "lng": -105.9672,
      "played": true,
      "order": 73,
      "first_played": "2024-08-26",
      "video_url": null,
      "has_video": false,
      "apple_maps": "https://maps.apple.com/?q=1239%20Keystone%20Ranch%20Rd%2C%20Keystone%2C%20CO%2080435",
      "google_maps": "https://www.google.com/maps/search/?api=1&query=1239%20Keystone%20Ranch%20Rd%2C%20Keystone%2C%20CO%2080435"
    },
    {
      "id": 155,
      "name": "King's Deer Golf Club",
      "city": "Monument",
      "region": "Front Range South",
      "type": "Semi-Private",
      "address": "19255 Royal Troon Dr, Monument, CO 80132",
      "lat": 39.0935,
      "lng": -104.8674,
      "played": true,
      "order": 17,
      "first_played": "2019-10-19",
      "video_url": null,
      "has_video": false,
      "apple_maps": "https://maps.apple.com/?q=19255%20Royal%20Troon%20Dr%2C%20Monument%2C%20CO%2080132",
      "google_maps": "https://www.google.com/maps/search/?api=1&query=19255%20Royal%20Troon%20Dr%2C%20Monument%2C%20CO%2080132"
    },
    {
      "id": 156,
      "name": "Kissing Camels at Garden of the Gods Club - North",
      "city": "Colorado Springs",
      "region": "Front Range South",
      "type": "Private",
      "address": "4500 Kissing Camels Dr, Colorado Springs, CO 80904",
      "lat": 38.8879,
      "lng": -104.8706,
      "played": true,
      "order": 41,
      "first_played": "2022-09-15",
      "video_url": null,
      "has_video": false,
      "apple_maps": "https://maps.apple.com/?q=4500%20Kissing%20Camels%20Dr%2C%20Colorado%20Springs%2C%20CO%2080904",
      "google_maps": "https://www.google.com/maps/search/?api=1&query=4500%20Kissing%20Camels%20Dr%2C%20Colorado%20Springs%2C%20CO%2080904"
    },
    {
      "id": 157,
      "name": "Kissing Camels at Garden of the Gods Club - South",
      "city": "Colorado Springs",
      "region": "Front Range South",
      "type": "Private",
      "address": "4500 Kissing Camels Dr, Colorado Springs, CO 80904",
      "lat": 38.8879,
      "lng": -104.8706,
      "played": true,
      "order": 11,
      "first_played": "2019-08-30",
      "video_url": null,
      "has_video": false,
      "apple_maps": "https://maps.apple.com/?q=4500%20Kissing%20Camels%20Dr%2C%20Colorado%20Springs%2C%20CO%2080904",
      "google_maps": "https://www.google.com/maps/search/?api=1&query=4500%20Kissing%20Camels%20Dr%2C%20Colorado%20Springs%2C%20CO%2080904"
    },
    {
      "id": 158,
      "name": "Kissing Camels at Garden of the Gods Club - West",
      "city": "Colorado Springs",
      "region": "Front Range South",
      "type": "Private",
      "address": "4500 Kissing Camels Dr, Colorado Springs, CO 80904",
      "lat": 38.8879,
      "lng": -104.8706,
      "played": true,
      "order": 12,
      "first_played": "2019-08-30",
      "video_url": null,
      "has_video": false,
      "apple_maps": "https://maps.apple.com/?q=4500%20Kissing%20Camels%20Dr%2C%20Colorado%20Springs%2C%20CO%2080904",
      "google_maps": "https://www.google.com/maps/search/?api=1&query=4500%20Kissing%20Camels%20Dr%2C%20Colorado%20Springs%2C%20CO%2080904"
    },
    {
      "id": 159,
      "name": "La Junta Golf Club",
      "city": "La Junta",
      "region": "Front Range South",
      "type": "Public",
      "address": "27696 Harris Rd, La Junta, CO 81050",
      "lat": 37.9944,
      "lng": -103.5467,
      "played": false,
      "order": null,
      "first_played": null,
      "video_url": null,
      "has_video": false,
      "apple_maps": "https://maps.apple.com/?q=27696%20Harris%20Rd%2C%20La%20Junta%2C%20CO%2081050",
      "google_maps": "https://www.google.com/maps/search/?api=1&query=27696%20Harris%20Rd%2C%20La%20Junta%2C%20CO%2081050"
    },
    {
      "id": 160,
      "name": "Lake Arbor Golf Club",
      "city": "Arvada",
      "region": "Denver Area",
      "type": "Public",
      "address": "8600 Wadsworth Blvd, Arvada, CO 80003",
      "lat": 39.8492,
      "lng": -105.0813,
      "played": false,
      "order": null,
      "first_played": null,
      "video_url": null,
      "has_video": false,
      "apple_maps": "https://maps.apple.com/?q=8600%20Wadsworth%20Blvd%2C%20Arvada%2C%20CO%2080003",
      "google_maps": "https://www.google.com/maps/search/?api=1&query=8600%20Wadsworth%20Blvd%2C%20Arvada%2C%20CO%2080003"
    },
    {
      "id": 161,
      "name": "Lake Estes Executive 9 Golf Course",
      "city": "Estes Park",
      "region": "Mountain Area",
      "type": "Public",
      "address": "690 Big Thompson Ave, Estes Park, CO 80517",
      "lat": 40.3773,
      "lng": -105.5185,
      "played": false,
      "order": null,
      "first_played": null,
      "video_url": null,
      "has_video": false,
      "apple_maps": "https://maps.apple.com/?q=690%20Big%20Thompson%20Ave%2C%20Estes%20Park%2C%20CO%2080517",
      "google_maps": "https://www.google.com/maps/search/?api=1&query=690%20Big%20Thompson%20Ave%2C%20Estes%20Park%2C%20CO%2080517"
    },
    {
      "id": 162,
      "name": "Lake Valley Golf Club",
      "city": "Niwot",
      "region": "Front Range North",
      "type": "Private",
      "address": "4400 Lake Valley Dr, Niwot, CO 80503",
      "lat": 40.0938,
      "lng": -105.1694,
      "played": false,
      "order": null,
      "first_played": null,
      "video_url": null,
      "has_video": false,
      "apple_maps": "https://maps.apple.com/?q=4400%20Lake%20Valley%20Dr%2C%20Niwot%2C%20CO%2080503",
      "google_maps": "https://www.google.com/maps/search/?api=1&query=4400%20Lake%20Valley%20Dr%2C%20Niwot%2C%20CO%2080503"
    },
    {
      "id": 163,
      "name": "Lakewood Country Club",
      "city": "Lakewood",
      "region": "Denver Area",
      "type": "Private",
      "address": "6800 W 10th Ave, Lakewood, CO 80214",
      "lat": 39.7322,
      "lng": -105.0735,
      "played": true,
      "order": 63,
      "first_played": "2024-04-15",
      "video_url": "https://www.instagram.com/reel/DPuhK7ngTNQ/?igsh=MXM5Y2pjZHJ0YjBvZQ==",
      "has_video": true,
      "apple_maps": "https://maps.apple.com/?q=6800%20W%2010th%20Ave%2C%20Lakewood%2C%20CO%2080214",
      "google_maps": "https://www.google.com/maps/search/?api=1&query=6800%20W%2010th%20Ave%2C%20Lakewood%2C%20CO%2080214"
    },
    {
      "id": 164,
      "name": "Lakota Canyon Ranch Golf Club",
      "city": "New Castle",
      "region": "West Slope",
      "type": "Public",
      "address": "1000 Clubhouse Dr, New Castle, CO 81647",
      "lat": 39.5844,
      "lng": -107.5431,
      "played": false,
      "order": null,
      "first_played": null,
      "video_url": null,
      "has_video": false,
      "apple_maps": "https://maps.apple.com/?q=1000%20Clubhouse%20Dr%2C%20New%20Castle%2C%20CO%2081647",
      "google_maps": "https://www.google.com/maps/search/?api=1&query=1000%20Clubhouse%20Dr%2C%20New%20Castle%2C%20CO%2081647"
    },
    {
      "id": 165,
      "name": "Las Animas Golf Course",
      "city": "Las Animas",
      "region": "Front Range South",
      "type": "Public",
      "address": "220 Country Club Dr, Las Animas, CO 81054",
      "lat": 38.0653,
      "lng": -103.2164,
      "played": false,
      "order": null,
      "first_played": null,
      "video_url": null,
      "has_video": false,
      "apple_maps": "https://maps.apple.com/?q=220%20Country%20Club%20Dr%2C%20Las%20Animas%2C%20CO%2081054",
      "google_maps": "https://www.google.com/maps/search/?api=1&query=220%20Country%20Club%20Dr%2C%20Las%20Animas%2C%20CO%2081054"
    },
    {
      "id": 166,
      "name": "Legacy Ridge Golf Course",
      "city": "Westminster",
      "region": "Denver Area",
      "type": "Public",
      "address": "10801 Legacy Ridge Pkwy, Westminster, CO 80031",
      "lat": 39.8875,
      "lng": -105.0602,
      "played": true,
      "order": 27,
      "first_played": "2021-07-21",
      "video_url": null,
      "has_video": false,
      "apple_maps": "https://maps.apple.com/?q=10801%20Legacy%20Ridge%20Pkwy%2C%20Westminster%2C%20CO%2080031",
      "google_maps": "https://www.google.com/maps/search/?api=1&query=10801%20Legacy%20Ridge%20Pkwy%2C%20Westminster%2C%20CO%2080031"
    },
    {
      "id": 167,
      "name": "Lincoln Park Golf Course",
      "city": "Grand Junction",
      "region": "West Slope",
      "type": "Public",
      "address": "800 Mantlo Cir, Grand Junction, CO 81501",
      "lat": 39.0866,
      "lng": -108.5752,
      "played": false,
      "order": null,
      "first_played": null,
      "video_url": null,
      "has_video": false,
      "apple_maps": "https://maps.apple.com/?q=800%20Mantlo%20Cir%2C%20Grand%20Junction%2C%20CO%2081501",
      "google_maps": "https://www.google.com/maps/search/?api=1&query=800%20Mantlo%20Cir%2C%20Grand%20Junction%2C%20CO%2081501"
    },
    {
      "id": 168,
      "name": "Links Golf Course, The",
      "city": "Highlands Ranch",
      "region": "Denver Area",
      "type": "Public",
      "address": "5815 E Gleneagles Village Pkwy, Highlands Ranch, CO 80130",
      "lat": 39.5339,
      "lng": -104.9324,
      "played": true,
      "order": 117,
      "first_played": "2025-10-17",
      "video_url": "https://www.instagram.com/reel/DQZKowWDuKW/?igsh=bjhiZTkzOHJ5ajgw",
      "has_video": true,
      "apple_maps": "https://maps.apple.com/?q=5815%20E%20Gleneagles%20Village%20Pkwy%2C%20Highlands%20Ranch%2C%20CO%2080130",
      "google_maps": "https://www.google.com/maps/search/?api=1&query=5815%20E%20Gleneagles%20Village%20Pkwy%2C%20Highlands%20Ranch%2C%20CO%2080130"
    },
    {
      "id": 169,
      "name": "Littleton Golf & Tennis Club",
      "city": "Littleton",
      "region": "Denver Area",
      "type": "Public",
      "address": "5800 S Federal Blvd, Littleton, CO 80123",
      "lat": 39.6157,
      "lng": -105.0256,
      "played": true,
      "order": 101,
      "first_played": "2025-06-10",
      "video_url": "https://www.instagram.com/reel/DMSphr6xMfY/?utm_source=ig_web_copy_link&igsh=ZjB2MXh5emwycjVx",
      "has_video": true,
      "apple_maps": "https://maps.apple.com/?q=5800%20S%20Federal%20Blvd%2C%20Littleton%2C%20CO%2080123",
      "google_maps": "https://www.google.com/maps/search/?api=1&query=5800%20S%20Federal%20Blvd%2C%20Littleton%2C%20CO%2080123"
    },
    {
      "id": 170,
      "name": "Lone Tree Golf Club",
      "city": "Lone Tree",
      "region": "Denver Area",
      "type": "Public",
      "address": "9808 Sunningdale Blvd, Lone Tree, CO 80124",
      "lat": 39.5307,
      "lng": -104.8864,
      "played": true,
      "order": 89,
      "first_played": "2025-04-28",
      "video_url": "https://www.instagram.com/reel/DJK1SH8tIOM/?igsh=cGN4NGppZmlja2Rt",
      "has_video": true,
      "apple_maps": "https://maps.apple.com/?q=9808%20Sunningdale%20Blvd%2C%20Lone%20Tree%2C%20CO%2080124",
      "google_maps": "https://www.google.com/maps/search/?api=1&query=9808%20Sunningdale%20Blvd%2C%20Lone%20Tree%2C%20CO%2080124"
    },
    {
      "id": 171,
      "name": "Mad Russian Golf Course, The",
      "city": "Milliken",
      "region": "Front Range North",
      "type": "Public",
      "address": "2100 Country Club Pkwy, Milliken, CO 80543",
      "lat": 40.3268,
      "lng": -104.8579,
      "played": true,
      "order": 84,
      "first_played": "2025-03-30",
      "video_url": null,
      "has_video": false,
      "apple_maps": "https://maps.apple.com/?q=2100%20Country%20Club%20Pkwy%2C%20Milliken%2C%20CO%2080543",
      "google_maps": "https://www.google.com/maps/search/?api=1&query=2100%20Country%20Club%20Pkwy%2C%20Milliken%2C%20CO%2080543"
    },
    {
      "id": 172,
      "name": "Mariana Butte Golf Course",
      "city": "Loveland",
      "region": "Front Range North",
      "type": "Public",
      "address": "701 Clubhouse Dr, Loveland, CO 80537",
      "lat": 40.3796,
      "lng": -105.1117,
      "played": true,
      "order": 79,
      "first_played": "2025-03-03",
      "video_url": null,
      "has_video": false,
      "apple_maps": "https://maps.apple.com/?q=701%20Clubhouse%20Dr%2C%20Loveland%2C%20CO%2080537",
      "google_maps": "https://www.google.com/maps/search/?api=1&query=701%20Clubhouse%20Dr%2C%20Loveland%2C%20CO%2080537"
    },
    {
      "id": 173,
      "name": "Maroon Creek Club",
      "city": "Aspen",
      "region": "Mountain Area",
      "type": "Private",
      "address": "10 Club Cir, Aspen, CO 81611",
      "lat": 39.2052,
      "lng": -106.8437,
      "played": false,
      "order": null,
      "first_played": null,
      "video_url": null,
      "has_video": false,
      "apple_maps": "https://maps.apple.com/?q=10%20Club%20Cir%2C%20Aspen%2C%20CO%2081611",
      "google_maps": "https://www.google.com/maps/search/?api=1&query=10%20Club%20Cir%2C%20Aspen%2C%20CO%2081611"
    },
    {
      "id": 174,
      "name": "Meadow Hills Golf Course",
      "city": "Aurora",
      "region": "Denver Area",
      "type": "Public",
      "address": "3609 S Dawson St, Aurora, CO 80014",
      "lat": 39.6534,
      "lng": -104.8301,
      "played": true,
      "order": 104,
      "first_played": "2025-07-10",
      "video_url": "https://www.instagram.com/reel/DM0CJ0WsZD2/?utm_source=ig_web_copy_link&igsh=MWUyY2R3aDM0emQzdg==",
      "has_video": true,
      "apple_maps": "https://maps.apple.com/?q=3609%20S%20Dawson%20St%2C%20Aurora%2C%20CO%2080014",
      "google_maps": "https://www.google.com/maps/search/?api=1&query=3609%20S%20Dawson%20St%2C%20Aurora%2C%20CO%2080014"
    },
    {
      "id": 175,
      "name": "Meadows Golf Club, The",
      "city": "Littleton",
      "region": "Denver Area",
      "type": "Public",
      "address": "7007 Meadows Golf Club Dr, Littleton, CO 80127",
      "lat": 39.5888,
      "lng": -105.1279,
      "played": false,
      "order": null,
      "first_played": null,
      "video_url": null,
      "has_video": false,
      "apple_maps": "https://maps.apple.com/?q=7007%20Meadows%20Golf%20Club%20Dr%2C%20Littleton%2C%20CO%2080127",
      "google_maps": "https://www.google.com/maps/search/?api=1&query=7007%20Meadows%20Golf%20Club%20Dr%2C%20Littleton%2C%20CO%2080127"
    },
    {
      "id": 176,
      "name": "Meeker Golf Course",
      "city": "Meeker",
      "region": "West Slope",
      "type": "Public",
      "address": "903 County Rd 13, Meeker, CO 81641",
      "lat": 40.0345,
      "lng": -107.9173,
      "played": false,
      "order": null,
      "first_played": null,
      "video_url": null,
      "has_video": false,
      "apple_maps": "https://maps.apple.com/?q=903%20County%20Rd%2013%2C%20Meeker%2C%20CO%2081641",
      "google_maps": "https://www.google.com/maps/search/?api=1&query=903%20County%20Rd%2013%2C%20Meeker%2C%20CO%2081641"
    },
    {
      "id": 177,
      "name": "Meridian Golf Club",
      "city": "Englewood",
      "region": "Denver Area",
      "type": "Private",
      "address": "9742 S Meridian Blvd, Englewood, CO 80112",
      "lat": 39.5381,
      "lng": -104.8554,
      "played": true,
      "order": 42,
      "first_played": "2022-10-09",
      "video_url": "https://www.instagram.com/p/DRChBrmDlPc/",
      "has_video": true,
      "apple_maps": "https://maps.apple.com/?q=9742%20S%20Meridian%20Blvd%2C%20Englewood%2C%20CO%2080112",
      "google_maps": "https://www.google.com/maps/search/?api=1&query=9742%20S%20Meridian%20Blvd%2C%20Englewood%2C%20CO%2080112"
    },
    {
      "id": 178,
      "name": "Monte Vista Country Club",
      "city": "Monte Vista",
      "region": "Mountain Area",
      "type": "Public",
      "address": "101 Country Club Dr, Monte Vista, CO 81144",
      "lat": 37.5736,
      "lng": -106.1528,
      "played": false,
      "order": null,
      "first_played": null,
      "video_url": null,
      "has_video": false,
      "apple_maps": "https://maps.apple.com/?q=101%20Country%20Club%20Dr%2C%20Monte%20Vista%2C%20CO%2081144",
      "google_maps": "https://www.google.com/maps/search/?api=1&query=101%20Country%20Club%20Dr%2C%20Monte%20Vista%2C%20CO%2081144"
    },
    {
      "id": 179,
      "name": "Mossland Memorial",
      "city": "Flagler",
      "region": "Front Range North",
      "type": "Public",
      "address": "16820 Co Rd 5, Flagler, CO 80815",
      "lat": 39.3028,
      "lng": -103.0581,
      "played": true,
      "order": 108,
      "first_played": "2025-07-31",
      "video_url": "https://www.instagram.com/reel/DNnkm-Rt4zC/?utm_source=ig_web_copy_link&igsh=MTVwcnEzZ3lxYWJydw==",
      "has_video": true,
      "apple_maps": "https://maps.apple.com/?q=16820%20Co%20Rd%205%2C%20Flagler%2C%20CO%2080815",
      "google_maps": "https://www.google.com/maps/search/?api=1&query=16820%20Co%20Rd%205%2C%20Flagler%2C%20CO%2080815"
    },
    {
      "id": 180,
      "name": "Mount Massive Golf Course",
      "city": "Leadville",
      "region": "Mountain Area",
      "type": "Public",
      "address": "259 County Road 5, Leadville, CO 80461",
      "lat": 39.2442,
      "lng": -106.3073,
      "played": false,
      "order": null,
      "first_played": null,
      "video_url": null,
      "has_video": false,
      "apple_maps": "https://maps.apple.com/?q=259%20County%20Road%205%2C%20Leadville%2C%20CO%2080461",
      "google_maps": "https://www.google.com/maps/search/?api=1&query=259%20County%20Road%205%2C%20Leadville%2C%20CO%2080461"
    },
    {
      "id": 181,
      "name": "Mountain Meadows Golf Club",
      "city": "South Fork",
      "region": "Mountain Area",
      "type": "Public",
      "address": "1 Mile W Dowdy Lake Rd, Red Feather Lakes, CO 80545",
      "lat": 40.7949,
      "lng": -105.6008,
      "played": false,
      "order": null,
      "first_played": null,
      "video_url": null,
      "has_video": false,
      "apple_maps": "https://maps.apple.com/?q=1%20Mile%20W%20Dowdy%20Lake%20Rd%2C%20Red%20Feather%20Lakes%2C%20CO%2080545",
      "google_maps": "https://www.google.com/maps/search/?api=1&query=1%20Mile%20W%20Dowdy%20Lake%20Rd%2C%20Red%20Feather%20Lakes%2C%20CO%2080545"
    },
    {
      "id": 182,
      "name": "Mountain Vista Greens Golf Course",
      "city": "Fort Collins",
      "region": "Front Range North",
      "type": "Public",
      "address": "2808 NE Frontage Rd, Fort Collins, CO 80524",
      "lat": 40.6119,
      "lng": -105.0437,
      "played": true,
      "order": 99,
      "first_played": "2025-06-03",
      "video_url": "https://www.instagram.com/reel/DL-A2ujt86e/?utm_source=ig_web_copy_link&igsh=ZmVsZ2Vvbm9kczky",
      "has_video": true,
      "apple_maps": "https://maps.apple.com/?q=2808%20NE%20Frontage%20Rd%2C%20Fort%20Collins%2C%20CO%2080524",
      "google_maps": "https://www.google.com/maps/search/?api=1&query=2808%20NE%20Frontage%20Rd%2C%20Fort%20Collins%2C%20CO%2080524"
    },
    {
      "id": 183,
      "name": "Murphy Creek Golf Course",
      "city": "Aurora",
      "region": "Denver Area",
      "type": "Public",
      "address": "1700 S Old Tom Morris Rd, Aurora, CO 80018",
      "lat": 39.6882,
      "lng": -104.7206,
      "played": true,
      "order": 44,
      "first_played": "2022-10-28",
      "video_url": null,
      "has_video": false,
      "apple_maps": "https://maps.apple.com/?q=1700%20S%20Old%20Tom%20Morris%20Rd%2C%20Aurora%2C%20CO%2080018",
      "google_maps": "https://www.google.com/maps/search/?api=1&query=1700%20S%20Old%20Tom%20Morris%20Rd%2C%20Aurora%2C%20CO%2080018"
    },
    {
      "id": 184,
      "name": "Northeastern 18",
      "city": "Sterling",
      "region": "Front Range North",
      "type": "Public",
      "address": "17408 CO-14, Sterling, CO 80751",
      "lat": 40.6352,
      "lng": -103.1917,
      "played": false,
      "order": null,
      "first_played": null,
      "video_url": null,
      "has_video": false,
      "apple_maps": "https://maps.apple.com/?q=17408%20CO-14%2C%20Sterling%2C%20CO%2080751",
      "google_maps": "https://www.google.com/maps/search/?api=1&query=17408%20CO-14%2C%20Sterling%2C%20CO%2080751"
    },
    {
      "id": 185,
      "name": "Olde Course at Loveland, The",
      "city": "Loveland",
      "region": "Front Range North",
      "type": "Public",
      "address": "2115 W 29th St, Loveland, CO 80538",
      "lat": 40.4204,
      "lng": -105.1048,
      "played": false,
      "order": null,
      "first_played": null,
      "video_url": null,
      "has_video": false,
      "apple_maps": "https://maps.apple.com/?q=2115%20W%2029th%20St%2C%20Loveland%2C%20CO%2080538",
      "google_maps": "https://www.google.com/maps/search/?api=1&query=2115%20W%2029th%20St%2C%20Loveland%2C%20CO%2080538"
    },
    {
      "id": 186,
      "name": "Omni Interlocken Resort Golf Club - Eldorado",
      "city": "Broomfield",
      "region": "Denver Area",
      "type": "Public",
      "address": "800 Eldorado Blvd, Broomfield, CO 80021",
      "lat": 39.9321,
      "lng": -105.134,
      "played": true,
      "order": 80,
      "first_played": "2025-03-10",
      "video_url": null,
      "has_video": false,
      "apple_maps": "https://maps.apple.com/?q=800%20Eldorado%20Blvd%2C%20Broomfield%2C%20CO%2080021",
      "google_maps": "https://www.google.com/maps/search/?api=1&query=800%20Eldorado%20Blvd%2C%20Broomfield%2C%20CO%2080021"
    },
    {
      "id": 187,
      "name": "Omni Interlocken Resort Golf Club - Sunshine",
      "city": "Broomfield",
      "region": "Denver Area",
      "type": "Public",
      "address": "800 Eldorado Blvd, Broomfield, CO 80021",
      "lat": 39.9321,
      "lng": -105.134,
      "played": false,
      "order": null,
      "first_played": null,
      "video_url": null,
      "has_video": false,
      "apple_maps": "https://maps.apple.com/?q=800%20Eldorado%20Blvd%2C%20Broomfield%2C%20CO%2080021",
      "google_maps": "https://www.google.com/maps/search/?api=1&query=800%20Eldorado%20Blvd%2C%20Broomfield%2C%20CO%2080021"
    },
    {
      "id": 188,
      "name": "Omni Interlocken Resort Golf Club - Vista",
      "city": "Broomfield",
      "region": "Denver Area",
      "type": "Public",
      "address": "800 Eldorado Blvd, Broomfield, CO 80021",
      "lat": 39.9321,
      "lng": -105.134,
      "played": true,
      "order": 81,
      "first_played": "2025-03-10",
      "video_url": null,
      "has_video": false,
      "apple_maps": "https://maps.apple.com/?q=800%20Eldorado%20Blvd%2C%20Broomfield%2C%20CO%2080021",
      "google_maps": "https://www.google.com/maps/search/?api=1&query=800%20Eldorado%20Blvd%2C%20Broomfield%2C%20CO%2080021"
    },
    {
      "id": 189,
      "name": "Overland Park Golf Course",
      "city": "Denver",
      "region": "Denver Area",
      "type": "Public",
      "address": "1801 S Huron St, Denver, CO 80223",
      "lat": 39.6856,
      "lng": -104.9973,
      "played": true,
      "order": 55,
      "first_played": "2023-08-15",
      "video_url": null,
      "has_video": false,
      "apple_maps": "https://maps.apple.com/?q=1801%20S%20Huron%20St%2C%20Denver%2C%20CO%2080223",
      "google_maps": "https://www.google.com/maps/search/?api=1&query=1801%20S%20Huron%20St%2C%20Denver%2C%20CO%2080223"
    },
    {
      "id": 190,
      "name": "Pagosa Springs Golf Course",
      "city": "Pagosa Springs",
      "region": "Mountain Area",
      "type": "Resort",
      "address": "1 Pines Club Pl, Pagosa Springs, CO 81147",
      "lat": 37.2776,
      "lng": -107.0168,
      "played": false,
      "order": null,
      "first_played": null,
      "video_url": null,
      "has_video": false,
      "apple_maps": "https://maps.apple.com/?q=1%20Pines%20Club%20Pl%2C%20Pagosa%20Springs%2C%20CO%2081147",
      "google_maps": "https://www.google.com/maps/search/?api=1&query=1%20Pines%20Club%20Pl%2C%20Pagosa%20Springs%2C%20CO%2081147"
    },
    {
      "id": 191,
      "name": "Patty Jewett Golf Course - Peak",
      "city": "Colorado Springs",
      "region": "Front Range South",
      "type": "Public",
      "address": "900 E Espanola St, Colorado Springs, CO 80907",
      "lat": 38.8795,
      "lng": -104.8128,
      "played": true,
      "order": 14,
      "first_played": "2019-09-01",
      "video_url": null,
      "has_video": false,
      "apple_maps": "https://maps.apple.com/?q=900%20E%20Espanola%20St%2C%20Colorado%20Springs%2C%20CO%2080907",
      "google_maps": "https://www.google.com/maps/search/?api=1&query=900%20E%20Espanola%20St%2C%20Colorado%20Springs%2C%20CO%2080907"
    },
    {
      "id": 192,
      "name": "Patty Jewett Golf Course - Plains",
      "city": "Colorado Springs",
      "region": "Front Range South",
      "type": "Public",
      "address": "900 E Espanola St, Colorado Springs, CO 80907",
      "lat": 38.8795,
      "lng": -104.8128,
      "played": true,
      "order": 15,
      "first_played": "2019-09-01",
      "video_url": null,
      "has_video": false,
      "apple_maps": "https://maps.apple.com/?q=900%20E%20Espanola%20St%2C%20Colorado%20Springs%2C%20CO%2080907",
      "google_maps": "https://www.google.com/maps/search/?api=1&query=900%20E%20Espanola%20St%2C%20Colorado%20Springs%2C%20CO%2080907"
    },
    {
      "id": 193,
      "name": "Patty Jewett Golf Course - Prairie",
      "city": "Colorado Springs",
      "region": "Front Range South",
      "type": "Public",
      "address": "900 E Espanola St, Colorado Springs, CO 80907",
      "lat": 38.8795,
      "lng": -104.8128,
      "played": false,
      "order": null,
      "first_played": null,
      "video_url": null,
      "has_video": false,
      "apple_maps": "https://maps.apple.com/?q=900%20E%20Espanola%20St%2C%20Colorado%20Springs%2C%20CO%2080907",
      "google_maps": "https://www.google.com/maps/search/?api=1&query=900%20E%20Espanola%20St%2C%20Colorado%20Springs%2C%20CO%2080907"
    },
    {
      "id": 194,
      "name": "Pelican Lakes Golf & Country Club",
      "city": "Windsor",
      "region": "Front Range North",
      "type": "Semi-Private",
      "address": "1620 Pelican Lakes Point, Windsor, CO 80550",
      "lat": 40.4721,
      "lng": -104.9152,
      "played": true,
      "order": 58,
      "first_played": "2023-10-15",
      "video_url": null,
      "has_video": false,
      "apple_maps": "https://maps.apple.com/?q=1620%20Pelican%20Lakes%20Point%2C%20Windsor%2C%20CO%2080550",
      "google_maps": "https://www.google.com/maps/search/?api=1&query=1620%20Pelican%20Lakes%20Point%2C%20Windsor%2C%20CO%2080550"
    },
    {
      "id": 195,
      "name": "Pelican Lakes Golf & Country Club - Falls",
      "city": "Windsor",
      "region": "Front Range North",
      "type": "Semi-Private",
      "address": "1620 Pelican Lakes Point, Windsor, CO 80550",
      "lat": 40.4721,
      "lng": -104.9152,
      "played": true,
      "order": 59,
      "first_played": "2023-10-16",
      "video_url": null,
      "has_video": false,
      "apple_maps": "https://maps.apple.com/?q=1620%20Pelican%20Lakes%20Point%2C%20Windsor%2C%20CO%2080550",
      "google_maps": "https://www.google.com/maps/search/?api=1&query=1620%20Pelican%20Lakes%20Point%2C%20Windsor%2C%20CO%2080550"
    },
    {
      "id": 196,
      "name": "Perry Park Country Club",
      "city": "Larkspur",
      "region": "Denver Area",
      "type": "Private",
      "address": "7047 Perry Park Blvd, Larkspur, CO 80118",
      "lat": 39.2604,
      "lng": -104.8476,
      "played": true,
      "order": 45,
      "first_played": "2022-11-01",
      "video_url": null,
      "has_video": false,
      "apple_maps": "https://maps.apple.com/?q=7047%20Perry%20Park%20Blvd%2C%20Larkspur%2C%20CO%2080118",
      "google_maps": "https://www.google.com/maps/search/?api=1&query=7047%20Perry%20Park%20Blvd%2C%20Larkspur%2C%20CO%2080118"
    },
    {
      "id": 197,
      "name": "Petteys Park Golf Course",
      "city": "Brush",
      "region": "Front Range North",
      "type": "Public",
      "address": "2301 West Mill St, Brush, CO 80723",
      "lat": 40.2563,
      "lng": -103.6178,
      "played": false,
      "order": null,
      "first_played": null,
      "video_url": null,
      "has_video": false,
      "apple_maps": "https://maps.apple.com/?q=2301%20West%20Mill%20St%2C%20Brush%2C%20CO%2080723",
      "google_maps": "https://www.google.com/maps/search/?api=1&query=2301%20West%20Mill%20St%2C%20Brush%2C%20CO%2080723"
    },
    {
      "id": 198,
      "name": "Pheasant Run Golf Course",
      "city": "Fort Morgan",
      "region": "Front Range North",
      "type": "Public",
      "address": "14971 E Pheasant Run Pkwy, Aurora, CO 80015",
      "lat": 39.6318,
      "lng": -104.7906,
      "played": false,
      "order": null,
      "first_played": null,
      "video_url": null,
      "has_video": false,
      "apple_maps": "https://maps.apple.com/?q=14971%20E%20Pheasant%20Run%20Pkwy%2C%20Aurora%2C%20CO%2080015",
      "google_maps": "https://www.google.com/maps/search/?api=1&query=14971%20E%20Pheasant%20Run%20Pkwy%2C%20Aurora%2C%20CO%2080015"
    },
    {
      "id": 199,
      "name": "Pine Creek Golf Club",
      "city": "Colorado Springs",
      "region": "Front Range South",
      "type": "Public",
      "address": "9850 Divot Trail, Colorado Springs, CO 80920",
      "lat": 38.9783,
      "lng": -104.7542,
      "played": true,
      "order": 10,
      "first_played": "2019-08-28",
      "video_url": null,
      "has_video": false,
      "apple_maps": "https://maps.apple.com/?q=9850%20Divot%20Trail%2C%20Colorado%20Springs%2C%20CO%2080920",
      "google_maps": "https://www.google.com/maps/search/?api=1&query=9850%20Divot%20Trail%2C%20Colorado%20Springs%2C%20CO%2080920"
    },
    {
      "id": 200,
      "name": "Pinehurst Country Club",
      "city": "Denver",
      "region": "Denver Area",
      "type": "Private",
      "address": "6255 W Quincy Ave, Denver, CO 80235",
      "lat": 39.6396,
      "lng": -105.0657,
      "played": true,
      "order": 61,
      "first_played": "2024-03-12",
      "video_url": null,
      "has_video": false,
      "apple_maps": "https://maps.apple.com/?q=6255%20W%20Quincy%20Ave%2C%20Denver%2C%20CO%2080235",
      "google_maps": "https://www.google.com/maps/search/?api=1&query=6255%20W%20Quincy%20Ave%2C%20Denver%2C%20CO%2080235"
    },
    {
      "id": 201,
      "name": "Pinehurst Country Club Executive 9",
      "city": "Denver",
      "region": "Denver Area",
      "type": "Private",
      "address": "6255 W Quincy Ave, Denver, CO 80235",
      "lat": 39.640125,
      "lng": -105.065248,
      "played": true,
      "order": 90,
      "first_played": "2025-04-29",
      "video_url": "https://www.instagram.com/reel/DJUca1mt1Iu/?igsh=MXgxYWZnMmIxNmFjeg==",
      "has_video": true,
      "apple_maps": "https://maps.apple.com/?q=6255%20W%20Quincy%20Ave%2C%20Denver%2C%20CO%2080235",
      "google_maps": "https://www.google.com/maps/search/?api=1&query=6255%20W%20Quincy%20Ave%2C%20Denver%2C%20CO%2080235"
    },
    {
      "id": 202,
      "name": "Pinery Country Club, The - Lake",
      "city": "Parker",
      "region": "Denver Area",
      "type": "Private",
      "address": "6900 N Pinery Pkwy, Parker, CO 80134",
      "lat": 39.5046,
      "lng": -104.7423,
      "played": true,
      "order": 118,
      "first_played": "2025-10-20",
      "video_url": "https://www.instagram.com/reel/DRFIEL2DtT4/?utm_source=ig_web_copy_link&igsh=MzRlODBiNWFlZA==",
      "has_video": true,
      "apple_maps": "https://maps.apple.com/?q=6900%20N%20Pinery%20Pkwy%2C%20Parker%2C%20CO%2080134",
      "google_maps": "https://www.google.com/maps/search/?api=1&query=6900%20N%20Pinery%20Pkwy%2C%20Parker%2C%20CO%2080134"
    },
    {
      "id": 203,
      "name": "Pinery Country Club, The - Mountain",
      "city": "Parker",
      "region": "Denver Area",
      "type": "Private",
      "address": "6900 N Pinery Pkwy, Parker, CO 80134",
      "lat": 39.5046,
      "lng": -104.7423,
      "played": true,
      "order": 120,
      "first_played": "2025-10-20",
      "video_url": "https://www.instagram.com/p/DRpKDBIjmpJ/",
      "has_video": true,
      "apple_maps": "https://maps.apple.com/?q=6900%20N%20Pinery%20Pkwy%2C%20Parker%2C%20CO%2080134",
      "google_maps": "https://www.google.com/maps/search/?api=1&query=6900%20N%20Pinery%20Pkwy%2C%20Parker%2C%20CO%2080134"
    },
    {
      "id": 204,
      "name": "Pinery Country Club, The - Valley",
      "city": "Parker",
      "region": "Denver Area",
      "type": "Private",
      "address": "6900 N Pinery Pkwy, Parker, CO 80134",
      "lat": 39.5046,
      "lng": -104.7423,
      "played": true,
      "order": 119,
      "first_played": "2025-10-20",
      "video_url": "https://www.instagram.com/reel/DRFIEL2DtT4/?utm_source=ig_web_copy_link&igsh=MzRlODBiNWFlZA==",
      "has_video": true,
      "apple_maps": "https://maps.apple.com/?q=6900%20N%20Pinery%20Pkwy%2C%20Parker%2C%20CO%2080134",
      "google_maps": "https://www.google.com/maps/search/?api=1&query=6900%20N%20Pinery%20Pkwy%2C%20Parker%2C%20CO%2080134"
    },
    {
      "id": 205,
      "name": "Plainsman Golf Club",
      "city": "Kirk",
      "region": "Front Range North",
      "type": "Public",
      "address": "9785 County Rd 4, Kirk, CO 80824",
      "lat": 39.6462,
      "lng": -102.5985,
      "played": false,
      "order": null,
      "first_played": null,
      "video_url": null,
      "has_video": false,
      "apple_maps": "https://maps.apple.com/?q=9785%20County%20Rd%204%2C%20Kirk%2C%20CO%2080824",
      "google_maps": "https://www.google.com/maps/search/?api=1&query=9785%20County%20Rd%204%2C%20Kirk%2C%20CO%2080824"
    },
    {
      "id": 206,
      "name": "Plum Creek Golf Club",
      "city": "Castle Rock",
      "region": "Denver Area",
      "type": "Public",
      "address": "331 Players Club Dr, Castle Rock, CO 80104",
      "lat": 39.3689,
      "lng": -104.8587,
      "played": true,
      "order": 37,
      "first_played": "2022-07-17",
      "video_url": null,
      "has_video": false,
      "apple_maps": "https://maps.apple.com/?q=331%20Players%20Club%20Dr%2C%20Castle%20Rock%2C%20CO%2080104",
      "google_maps": "https://www.google.com/maps/search/?api=1&query=331%20Players%20Club%20Dr%2C%20Castle%20Rock%2C%20CO%2080104"
    },
    {
      "id": 207,
      "name": "Pole Creek Golf Club - Meadow",
      "city": "Tabernash",
      "region": "Mountain Area",
      "type": "Public",
      "address": "6827 County Road 51, Tabernash, CO 80478",
      "lat": 39.9941,
      "lng": -105.8612,
      "played": false,
      "order": null,
      "first_played": null,
      "video_url": null,
      "has_video": false,
      "apple_maps": "https://maps.apple.com/?q=6827%20County%20Road%2051%2C%20Tabernash%2C%20CO%2080478",
      "google_maps": "https://www.google.com/maps/search/?api=1&query=6827%20County%20Road%2051%2C%20Tabernash%2C%20CO%2080478"
    },
    {
      "id": 208,
      "name": "Pole Creek Golf Club - Ranch",
      "city": "Tabernash",
      "region": "Mountain Area",
      "type": "Public",
      "address": "6827 County Road 51, Tabernash, CO 80478",
      "lat": 39.9941,
      "lng": -105.8612,
      "played": false,
      "order": null,
      "first_played": null,
      "video_url": null,
      "has_video": false,
      "apple_maps": "https://maps.apple.com/?q=6827%20County%20Road%2051%2C%20Tabernash%2C%20CO%2080478",
      "google_maps": "https://www.google.com/maps/search/?api=1&query=6827%20County%20Road%2051%2C%20Tabernash%2C%20CO%2080478"
    },
    {
      "id": 209,
      "name": "Pole Creek Golf Club - Ridge",
      "city": "Tabernash",
      "region": "Mountain Area",
      "type": "Public",
      "address": "6827 County Road 51, Tabernash, CO 80478",
      "lat": 39.9941,
      "lng": -105.8612,
      "played": false,
      "order": null,
      "first_played": null,
      "video_url": null,
      "has_video": false,
      "apple_maps": "https://maps.apple.com/?q=6827%20County%20Road%2051%2C%20Tabernash%2C%20CO%2080478",
      "google_maps": "https://www.google.com/maps/search/?api=1&query=6827%20County%20Road%2051%2C%20Tabernash%2C%20CO%2080478"
    },
    {
      "id": 210,
      "name": "Pradera, The Club at",
      "city": "Parker",
      "region": "Denver Area",
      "type": "Private",
      "address": "5225 Raintree Dr, Parker, CO 80134",
      "lat": 39.4704,
      "lng": -104.7458,
      "played": false,
      "order": null,
      "first_played": null,
      "video_url": null,
      "has_video": false,
      "apple_maps": "https://maps.apple.com/?q=5225%20Raintree%20Dr%2C%20Parker%2C%20CO%2080134",
      "google_maps": "https://www.google.com/maps/search/?api=1&query=5225%20Raintree%20Dr%2C%20Parker%2C%20CO%2080134"
    },
    {
      "id": 211,
      "name": "Prairie Pines Golf Club",
      "city": "Burlington",
      "region": "Front Range North",
      "type": "Public",
      "address": "48680 Snead Dr, Burlington, CO 80807",
      "lat": 39.3052,
      "lng": -102.2619,
      "played": false,
      "order": null,
      "first_played": null,
      "video_url": null,
      "has_video": false,
      "apple_maps": "https://maps.apple.com/?q=48680%20Snead%20Dr%2C%20Burlington%2C%20CO%2080807",
      "google_maps": "https://www.google.com/maps/search/?api=1&query=48680%20Snead%20Dr%2C%20Burlington%2C%20CO%2080807"
    },
    {
      "id": 212,
      "name": "Ptarmigan Country Club",
      "city": "Fort Collins",
      "region": "Front Range North",
      "type": "Private",
      "address": "5416 Vardon Way, Fort Collins, CO 80528",
      "lat": 40.5097,
      "lng": -104.9774,
      "played": true,
      "order": 112,
      "first_played": "2025-08-25",
      "video_url": "https://www.instagram.com/reel/DOW9CzsgSfj/?utm_source=ig_web_copy_link&igsh=MXJzcXEwMmVhZzk0",
      "has_video": true,
      "apple_maps": "https://maps.apple.com/?q=5416%20Vardon%20Way%2C%20Fort%20Collins%2C%20CO%2080528",
      "google_maps": "https://www.google.com/maps/search/?api=1&query=5416%20Vardon%20Way%2C%20Fort%20Collins%2C%20CO%2080528"
    },
    {
      "id": 213,
      "name": "Pueblo Country Club",
      "city": "Pueblo",
      "region": "Front Range South",
      "type": "Private",
      "address": "3200 8th Ave, Pueblo, CO 81008",
      "lat": 38.3088,
      "lng": -104.6112,
      "played": true,
      "order": 115,
      "first_played": "2025-09-04",
      "video_url": "https://www.instagram.com/reel/DPFVEnuDjkn/?igsh=MWR1N2ZnNnJ4Z3MxMA==",
      "has_video": true,
      "apple_maps": "https://maps.apple.com/?q=3200%208th%20Ave%2C%20Pueblo%2C%20CO%2081008",
      "google_maps": "https://www.google.com/maps/search/?api=1&query=3200%208th%20Ave%2C%20Pueblo%2C%20CO%2081008"
    },
    {
      "id": 214,
      "name": "Quail Dunes Golf Course",
      "city": "Fort Morgan",
      "region": "Front Range North",
      "type": "Public",
      "address": "17586 County Road T5, Fort Morgan, CO 80701",
      "lat": 40.2501,
      "lng": -103.8167,
      "played": true,
      "order": 74,
      "first_played": "2024-11-12",
      "video_url": null,
      "has_video": false,
      "apple_maps": "https://maps.apple.com/?q=17586%20County%20Road%20T5%2C%20Fort%20Morgan%2C%20CO%2080701",
      "google_maps": "https://www.google.com/maps/search/?api=1&query=17586%20County%20Road%20T5%2C%20Fort%20Morgan%2C%20CO%2080701"
    },
    {
      "id": 215,
      "name": "Quint Valley Golf Club",
      "city": "Byers",
      "region": "Front Range North",
      "type": "Public",
      "address": "280 S County Road 173, Byers, CO 80103",
      "lat": 39.7206,
      "lng": -104.2308,
      "played": false,
      "order": null,
      "first_played": null,
      "video_url": null,
      "has_video": false,
      "apple_maps": "https://maps.apple.com/?q=280%20S%20County%20Road%20173%2C%20Byers%2C%20CO%2080103",
      "google_maps": "https://www.google.com/maps/search/?api=1&query=280%20S%20County%20Road%20173%2C%20Byers%2C%20CO%2080103"
    },
    {
      "id": 216,
      "name": "Raccoon Creek Golf Course",
      "city": "Littleton",
      "region": "Denver Area",
      "type": "Public",
      "address": "7301 W Bowles Ave, Littleton, CO 80123",
      "lat": 39.6073,
      "lng": -105.0816,
      "played": true,
      "order": 39,
      "first_played": "2022-07-24",
      "video_url": null,
      "has_video": false,
      "apple_maps": "https://maps.apple.com/?q=7301%20W%20Bowles%20Ave%2C%20Littleton%2C%20CO%2080123",
      "google_maps": "https://www.google.com/maps/search/?api=1&query=7301%20W%20Bowles%20Ave%2C%20Littleton%2C%20CO%2080123"
    },
    {
      "id": 217,
      "name": "RainDance National",
      "city": "Windsor",
      "region": "Front Range North",
      "type": "Public",
      "address": "1775 RainDance National Dr, Windsor, CO 80550",
      "lat": 40.451,
      "lng": -104.9038,
      "played": true,
      "order": 47,
      "first_played": "2023-06-25",
      "video_url": "https://www.instagram.com/reel/DKCfExYNW7U/?igsh=MTh0dzlxbDdwdjc2dA==",
      "has_video": true,
      "apple_maps": "https://maps.apple.com/?q=1775%20RainDance%20National%20Dr%2C%20Windsor%2C%20CO%2080550",
      "google_maps": "https://www.google.com/maps/search/?api=1&query=1775%20RainDance%20National%20Dr%2C%20Windsor%2C%20CO%2080550"
    },
    {
      "id": 218,
      "name": "Ranch at Roaring Fork Golf Course",
      "city": "Carbondale",
      "region": "Mountain Area",
      "type": "Semi-Private",
      "address": "14913 Hwy 82, Carbondale, CO 81623",
      "lat": 39.4039,
      "lng": -107.1675,
      "played": false,
      "order": null,
      "first_played": null,
      "video_url": null,
      "has_video": false,
      "apple_maps": "https://maps.apple.com/?q=14913%20Hwy%2082%2C%20Carbondale%2C%20CO%2081623",
      "google_maps": "https://www.google.com/maps/search/?api=1&query=14913%20Hwy%2082%2C%20Carbondale%2C%20CO%2081623"
    },
    {
      "id": 219,
      "name": "Ranch Country Club, The",
      "city": "Westminster",
      "region": "Denver Area",
      "type": "Private",
      "address": "11887 Tejon St, Westminster, CO 80234",
      "lat": 39.9104,
      "lng": -105.0137,
      "played": true,
      "order": 69,
      "first_played": "2024-06-17",
      "video_url": "https://www.instagram.com/reel/DPTrbCADmQ0/?igsh=cmV2cnE3NTV3ZzBo",
      "has_video": true,
      "apple_maps": "https://maps.apple.com/?q=11887%20Tejon%20St%2C%20Westminster%2C%20CO%2080234",
      "google_maps": "https://www.google.com/maps/search/?api=1&query=11887%20Tejon%20St%2C%20Westminster%2C%20CO%2080234"
    },
    {
      "id": 220,
      "name": "Raven Golf Club at Three Peaks",
      "city": "Silverthorne",
      "region": "Mountain Area",
      "type": "Public",
      "address": "2929 Golden Eagle Rd, Silverthorne, CO 80498",
      "lat": 39.6378,
      "lng": -106.0719,
      "played": false,
      "order": null,
      "first_played": null,
      "video_url": null,
      "has_video": false,
      "apple_maps": "https://maps.apple.com/?q=2929%20Golden%20Eagle%20Rd%2C%20Silverthorne%2C%20CO%2080498",
      "google_maps": "https://www.google.com/maps/search/?api=1&query=2929%20Golden%20Eagle%20Rd%2C%20Silverthorne%2C%20CO%2080498"
    },
    {
      "id": 221,
      "name": "Ravenna, The Club at",
      "city": "Littleton",
      "region": "Denver Area",
      "type": "Private",
      "address": "8285 Dante Dr, Littleton, CO 80125",
      "lat": 39.4472,
      "lng": -105.0751,
      "played": true,
      "order": 64,
      "first_played": "2024-04-22",
      "video_url": "https://www.instagram.com/reel/DI6au-VxrXF/?igsh=cGw0NTl6NG9qNHR2",
      "has_video": true,
      "apple_maps": "https://maps.apple.com/?q=8285%20Dante%20Dr%2C%20Littleton%2C%20CO%2080125",
      "google_maps": "https://www.google.com/maps/search/?api=1&query=8285%20Dante%20Dr%2C%20Littleton%2C%20CO%2080125"
    },
    {
      "id": 222,
      "name": "Red Hawk Ridge Golf Course",
      "city": "Castle Rock",
      "region": "Denver Area",
      "type": "Public",
      "address": "2156 Red Hawk Ridge Dr, Castle Rock, CO 80109",
      "lat": 39.3884,
      "lng": -104.8803,
      "played": true,
      "order": 40,
      "first_played": "2022-08-21",
      "video_url": null,
      "has_video": false,
      "apple_maps": "https://maps.apple.com/?q=2156%20Red%20Hawk%20Ridge%20Dr%2C%20Castle%20Rock%2C%20CO%2080109",
      "google_maps": "https://www.google.com/maps/search/?api=1&query=2156%20Red%20Hawk%20Ridge%20Dr%2C%20Castle%20Rock%2C%20CO%2080109"
    },
    {
      "id": 223,
      "name": "Red Rocks Country Club",
      "city": "Morrison",
      "region": "Denver Area",
      "type": "Private",
      "address": "16235 W Belleview Ave, Morrison, CO 80465",
      "lat": 39.6249,
      "lng": -105.1824,
      "played": true,
      "order": 52,
      "first_played": "2023-08-07",
      "video_url": null,
      "has_video": false,
      "apple_maps": "https://maps.apple.com/?q=16235%20W%20Belleview%20Ave%2C%20Morrison%2C%20CO%2080465",
      "google_maps": "https://www.google.com/maps/search/?api=1&query=16235%20W%20Belleview%20Ave%2C%20Morrison%2C%20CO%2080465"
    },
    {
      "id": 224,
      "name": "Redlands Mesa, The Golf Club at",
      "city": "Grand Junction",
      "region": "West Slope",
      "type": "Public",
      "address": "2325 W Ridges Blvd, Grand Junction, CO 81507",
      "lat": 39.0919,
      "lng": -108.6312,
      "played": false,
      "order": null,
      "first_played": null,
      "video_url": null,
      "has_video": false,
      "apple_maps": "https://maps.apple.com/?q=2325%20W%20Ridges%20Blvd%2C%20Grand%20Junction%2C%20CO%2081507",
      "google_maps": "https://www.google.com/maps/search/?api=1&query=2325%20W%20Ridges%20Blvd%2C%20Grand%20Junction%2C%20CO%2081507"
    },
    {
      "id": 225,
      "name": "Ridge at Castle Pines North, The",
      "city": "Castle Pines",
      "region": "Denver Area",
      "type": "Public",
      "address": "1414 Castle Pines Pkwy, Castle Rock, CO 80108",
      "lat": 39.4573,
      "lng": -104.9002,
      "played": true,
      "order": 2,
      "first_played": "2017-07-26",
      "video_url": null,
      "has_video": false,
      "apple_maps": "https://maps.apple.com/?q=1414%20Castle%20Pines%20Pkwy%2C%20Castle%20Rock%2C%20CO%2080108",
      "google_maps": "https://www.google.com/maps/search/?api=1&query=1414%20Castle%20Pines%20Pkwy%2C%20Castle%20Rock%2C%20CO%2080108"
    },
    {
      "id": 226,
      "name": "Rifle Creek Golf Course",
      "city": "Rifle",
      "region": "West Slope",
      "type": "Public",
      "address": "3004 Highway 325, Rifle, CO 81650",
      "lat": 39.5414,
      "lng": -107.7912,
      "played": false,
      "order": null,
      "first_played": null,
      "video_url": null,
      "has_video": false,
      "apple_maps": "https://maps.apple.com/?q=3004%20Highway%20325%2C%20Rifle%2C%20CO%2081650",
      "google_maps": "https://www.google.com/maps/search/?api=1&query=3004%20Highway%20325%2C%20Rifle%2C%20CO%2081650"
    },
    {
      "id": 227,
      "name": "Rio Grande Club",
      "city": "South Fork",
      "region": "Mountain Area",
      "type": "Private",
      "address": "0285 Rio Grande Club Trail, South Fork, CO 81154",
      "lat": 37.6568,
      "lng": -106.6027,
      "played": false,
      "order": null,
      "first_played": null,
      "video_url": null,
      "has_video": false,
      "apple_maps": "https://maps.apple.com/?q=0285%20Rio%20Grande%20Club%20Trail%2C%20South%20Fork%2C%20CO%2081154",
      "google_maps": "https://www.google.com/maps/search/?api=1&query=0285%20Rio%20Grande%20Club%20Trail%2C%20South%20Fork%2C%20CO%2081154"
    },
    {
      "id": 228,
      "name": "River Course at Keystone, The",
      "city": "Keystone",
      "region": "Mountain Area",
      "type": "Resort",
      "address": "155 River Course Dr, Keystone, CO 80435",
      "lat": 39.5974,
      "lng": -105.9498,
      "played": false,
      "order": null,
      "first_played": null,
      "video_url": null,
      "has_video": false,
      "apple_maps": "https://maps.apple.com/?q=155%20River%20Course%20Dr%2C%20Keystone%2C%20CO%2080435",
      "google_maps": "https://www.google.com/maps/search/?api=1&query=155%20River%20Course%20Dr%2C%20Keystone%2C%20CO%2080435"
    },
    {
      "id": 229,
      "name": "River Valley Ranch Golf Club",
      "city": "Carbondale",
      "region": "Mountain Area",
      "type": "Public",
      "address": "303 River Valley Ranch Rd, Carbondale, CO 81623",
      "lat": 39.4065,
      "lng": -107.2022,
      "played": false,
      "order": null,
      "first_played": null,
      "video_url": null,
      "has_video": false,
      "apple_maps": "https://maps.apple.com/?q=303%20River%20Valley%20Ranch%20Rd%2C%20Carbondale%2C%20CO%2081623",
      "google_maps": "https://www.google.com/maps/search/?api=1&query=303%20River%20Valley%20Ranch%20Rd%2C%20Carbondale%2C%20CO%2081623"
    },
    {
      "id": 230,
      "name": "Riverdale Dunes Golf Course",
      "city": "Brighton",
      "region": "Denver Area",
      "type": "Public",
      "address": "13300 Riverdale Rd, Brighton, CO 80602",
      "lat": 39.9418,
      "lng": -104.8614,
      "played": true,
      "order": 105,
      "first_played": "2025-07-18",
      "video_url": "https://www.instagram.com/p/DNA8_78RPE9/",
      "has_video": true,
      "apple_maps": "https://maps.apple.com/?q=13300%20Riverdale%20Rd%2C%20Brighton%2C%20CO%2080602",
      "google_maps": "https://www.google.com/maps/search/?api=1&query=13300%20Riverdale%20Rd%2C%20Brighton%2C%20CO%2080602"
    },
    {
      "id": 231,
      "name": "Riverdale The Knolls",
      "city": "Brighton",
      "region": "Denver Area",
      "type": "Public",
      "address": "13300 Riverdale Rd, Brighton, CO 80602",
      "lat": 39.9418,
      "lng": -104.8614,
      "played": false,
      "order": null,
      "first_played": null,
      "video_url": null,
      "has_video": false,
      "apple_maps": "https://maps.apple.com/?q=13300%20Riverdale%20Rd%2C%20Brighton%2C%20CO%2080602",
      "google_maps": "https://www.google.com/maps/search/?api=1&query=13300%20Riverdale%20Rd%2C%20Brighton%2C%20CO%2080602"
    },
    {
      "id": 232,
      "name": "Riverview Golf Course",
      "city": "Sterling",
      "region": "Front Range North",
      "type": "Public",
      "address": "22426 County Road 17, Sterling, CO 80751",
      "lat": 40.6189,
      "lng": -103.1634,
      "played": false,
      "order": null,
      "first_played": null,
      "video_url": null,
      "has_video": false,
      "apple_maps": "https://maps.apple.com/?q=22426%20County%20Road%2017%2C%20Sterling%2C%20CO%2080751",
      "google_maps": "https://www.google.com/maps/search/?api=1&query=22426%20County%20Road%2017%2C%20Sterling%2C%20CO%2080751"
    },
    {
      "id": 233,
      "name": "Roaring Fork Club",
      "city": "Basalt",
      "region": "Mountain Area",
      "type": "Private",
      "address": "100 Arbaney Ranch Rd, Basalt, CO 81621",
      "lat": 39.3612,
      "lng": -107.0457,
      "played": false,
      "order": null,
      "first_played": null,
      "video_url": null,
      "has_video": false,
      "apple_maps": "https://maps.apple.com/?q=100%20Arbaney%20Ranch%20Rd%2C%20Basalt%2C%20CO%2081621",
      "google_maps": "https://www.google.com/maps/search/?api=1&query=100%20Arbaney%20Ranch%20Rd%2C%20Basalt%2C%20CO%2081621"
    },
    {
      "id": 234,
      "name": "Rocky Ford Country Club",
      "city": "Rocky Ford",
      "region": "Front Range South",
      "type": "Public",
      "address": "91 Play Park Hill Dr, Rocky Ford, CO 81067",
      "lat": 38.0441,
      "lng": -103.7179,
      "played": false,
      "order": null,
      "first_played": null,
      "video_url": null,
      "has_video": false,
      "apple_maps": "https://maps.apple.com/?q=91%20Play%20Park%20Hill%20Dr%2C%20Rocky%20Ford%2C%20CO%2081067",
      "google_maps": "https://www.google.com/maps/search/?api=1&query=91%20Play%20Park%20Hill%20Dr%2C%20Rocky%20Ford%2C%20CO%2081067"
    },
    {
      "id": 235,
      "name": "Rodeo Dunes - Course #1",
      "city": "Roggen",
      "region": "Front Range North",
      "type": "Resort",
      "address": "34587 I-76 Frontage Rd, Roggen, CO 80652",
      "lat": 40.0847,
      "lng": -104.3205,
      "played": false,
      "order": null,
      "first_played": null,
      "video_url": null,
      "has_video": false,
      "apple_maps": "https://maps.apple.com/?q=34587%20I-76%20Frontage%20Rd%2C%20Roggen%2C%20CO%2080652",
      "google_maps": "https://www.google.com/maps/search/?api=1&query=34587%20I-76%20Frontage%20Rd%2C%20Roggen%2C%20CO%2080652"
    },
    {
      "id": 236,
      "name": "Rodeo Dunes - Course #2",
      "city": "Roggen",
      "region": "Front Range North",
      "type": "Resort",
      "address": "34587 I-76 Frontage Rd, Roggen, CO 80652",
      "lat": 40.0847,
      "lng": -104.3205,
      "played": false,
      "order": null,
      "first_played": null,
      "video_url": null,
      "has_video": false,
      "apple_maps": "https://maps.apple.com/?q=34587%20I-76%20Frontage%20Rd%2C%20Roggen%2C%20CO%2080652",
      "google_maps": "https://www.google.com/maps/search/?api=1&query=34587%20I-76%20Frontage%20Rd%2C%20Roggen%2C%20CO%2080652"
    },
    {
      "id": 237,
      "name": "Rolling Hills, The Club at",
      "city": "Golden",
      "region": "Denver Area",
      "type": "Private",
      "address": "15707 W 26th Ave, Golden, CO 80401",
      "lat": 39.7549,
      "lng": -105.1774,
      "played": true,
      "order": 102,
      "first_played": "2025-06-11",
      "video_url": "https://www.instagram.com/reel/DMaT1v2s2tt/?igsh=ZmJna2xtMTc4NTV1",
      "has_video": true,
      "apple_maps": "https://maps.apple.com/?q=15707%20W%2026th%20Ave%2C%20Golden%2C%20CO%2080401",
      "google_maps": "https://www.google.com/maps/search/?api=1&query=15707%20W%2026th%20Ave%2C%20Golden%2C%20CO%2080401"
    },
    {
      "id": 238,
      "name": "Rollingstone Ranch Golf Club",
      "city": "Steamboat Springs",
      "region": "Mountain Area",
      "type": "Resort",
      "address": "1230 Steamboat Blvd, Steamboat Springs, CO 80487",
      "lat": 40.4606,
      "lng": -106.8043,
      "played": false,
      "order": null,
      "first_played": null,
      "video_url": null,
      "has_video": false,
      "apple_maps": "https://maps.apple.com/?q=1230%20Steamboat%20Blvd%2C%20Steamboat%20Springs%2C%20CO%2080487",
      "google_maps": "https://www.google.com/maps/search/?api=1&query=1230%20Steamboat%20Blvd%2C%20Steamboat%20Springs%2C%20CO%2080487"
    },
    {
      "id": 239,
      "name": "Saddle Rock Golf Course",
      "city": "Aurora",
      "region": "Denver Area",
      "type": "Public",
      "address": "21705 E Arapahoe Rd, Aurora, CO 80016",
      "lat": 39.5937,
      "lng": -104.7342,
      "played": true,
      "order": 67,
      "first_played": "2024-05-20",
      "video_url": "https://www.instagram.com/p/DNYCWhGsGe7/",
      "has_video": true,
      "apple_maps": "https://maps.apple.com/?q=21705%20E%20Arapahoe%20Rd%2C%20Aurora%2C%20CO%2080016",
      "google_maps": "https://www.google.com/maps/search/?api=1&query=21705%20E%20Arapahoe%20Rd%2C%20Aurora%2C%20CO%2080016"
    },
    {
      "id": 240,
      "name": "Saddleback Golf Course",
      "city": "Firestone",
      "region": "Front Range North",
      "type": "Public",
      "address": "8631 Frontier St, Firestone, CO 80504",
      "lat": 40.1189,
      "lng": -104.9365,
      "played": false,
      "order": null,
      "first_played": null,
      "video_url": null,
      "has_video": false,
      "apple_maps": "https://maps.apple.com/?q=8631%20Frontier%20St%2C%20Firestone%2C%20CO%2080504",
      "google_maps": "https://www.google.com/maps/search/?api=1&query=8631%20Frontier%20St%2C%20Firestone%2C%20CO%2080504"
    },
    {
      "id": 241,
      "name": "Salida Golf Club",
      "city": "Salida",
      "region": "Mountain Area",
      "type": "Public",
      "address": "404 Grant St, Salida, CO 81201",
      "lat": 38.5342,
      "lng": -105.9987,
      "played": false,
      "order": null,
      "first_played": null,
      "video_url": null,
      "has_video": false,
      "apple_maps": "https://maps.apple.com/?q=404%20Grant%20St%2C%20Salida%2C%20CO%2081201",
      "google_maps": "https://www.google.com/maps/search/?api=1&query=404%20Grant%20St%2C%20Salida%2C%20CO%2081201"
    },
    {
      "id": 242,
      "name": "Sanctuary",
      "city": "Sedalia",
      "region": "Denver Area",
      "type": "Private",
      "address": "7549 Daniels Park Rd, Sedalia, CO 80135",
      "lat": 39.4693,
      "lng": -104.9381,
      "played": true,
      "order": 7,
      "first_played": "2019-07-21",
      "video_url": null,
      "has_video": false,
      "apple_maps": "https://maps.apple.com/?q=7549%20Daniels%20Park%20Rd%2C%20Sedalia%2C%20CO%2080135",
      "google_maps": "https://www.google.com/maps/search/?api=1&query=7549%20Daniels%20Park%20Rd%2C%20Sedalia%2C%20CO%2080135"
    },
    {
      "id": 243,
      "name": "Sand Creek Golf Course",
      "city": "Colorado Springs",
      "region": "Front Range South",
      "type": "Public",
      "address": "6865 Galley Rd, Colorado Springs, CO 80915",
      "lat": 38.8524,
      "lng": -104.7056,
      "played": true,
      "order": 3,
      "first_played": "2018-07-28",
      "video_url": null,
      "has_video": false,
      "apple_maps": "https://maps.apple.com/?q=6865%20Galley%20Rd%2C%20Colorado%20Springs%2C%20CO%2080915",
      "google_maps": "https://www.google.com/maps/search/?api=1&query=6865%20Galley%20Rd%2C%20Colorado%20Springs%2C%20CO%2080915"
    },
    {
      "id": 244,
      "name": "Sedgwick County Golf Course",
      "city": "Julesburg",
      "region": "Front Range North",
      "type": "Public",
      "address": "State Highway 11, Julesburg, CO 80737",
      "lat": 40.9882,
      "lng": -102.2645,
      "played": false,
      "order": null,
      "first_played": null,
      "video_url": null,
      "has_video": false,
      "apple_maps": "https://maps.apple.com/?q=State%20Highway%2011%2C%20Julesburg%2C%20CO%2080737",
      "google_maps": "https://www.google.com/maps/search/?api=1&query=State%20Highway%2011%2C%20Julesburg%2C%20CO%2080737"
    },
    {
      "id": 245,
      "name": "Shining Mountain Golf Club",
      "city": "Woodland Park",
      "region": "Mountain Area",
      "type": "Public",
      "address": "100 Shining Mountain Ln, Woodland Park, CO 80863",
      "lat": 38.9798,
      "lng": -105.0415,
      "played": true,
      "order": 19,
      "first_played": "2020-08-22",
      "video_url": null,
      "has_video": false,
      "apple_maps": "https://maps.apple.com/?q=100%20Shining%20Mountain%20Ln%2C%20Woodland%20Park%2C%20CO%2080863",
      "google_maps": "https://www.google.com/maps/search/?api=1&query=100%20Shining%20Mountain%20Ln%2C%20Woodland%20Park%2C%20CO%2080863"
    },
    {
      "id": 246,
      "name": "Silver Spruce Golf Course",
      "city": "Military (Peterson AFB)",
      "region": "Front Range South",
      "type": "Public",
      "address": "401 Glasgow Ave, Bldg 1054, Colorado Springs, CO 80914",
      "lat": 38.7535,
      "lng": -104.756,
      "played": true,
      "order": 1,
      "first_played": "2016-07-11",
      "video_url": "https://www.instagram.com/reel/DJbqCQGtqOr/?igsh=MW5sMmZtZ2JhN3RxNg==",
      "has_video": true,
      "apple_maps": "https://maps.apple.com/?q=401%20Glasgow%20Ave%2C%20Bldg%201054%2C%20Colorado%20Springs%2C%20CO%2080914",
      "google_maps": "https://www.google.com/maps/search/?api=1&query=401%20Glasgow%20Ave%2C%20Bldg%201054%2C%20Colorado%20Springs%2C%20CO%2080914"
    },
    {
      "id": 247,
      "name": "Sky Ranch Golf Course",
      "city": "Sterling",
      "region": "Front Range North",
      "type": "Public",
      "address": "17408 CO-14, Sterling, CO 80751",
      "lat": 40.6352,
      "lng": -103.1917,
      "played": false,
      "order": null,
      "first_played": null,
      "video_url": null,
      "has_video": false,
      "apple_maps": "https://maps.apple.com/?q=17408%20CO-14%2C%20Sterling%2C%20CO%2080751",
      "google_maps": "https://www.google.com/maps/search/?api=1&query=17408%20CO-14%2C%20Sterling%2C%20CO%2080751"
    },
    {
      "id": 248,
      "name": "Smoky River Golf Club",
      "city": "Cheyenne Wells",
      "region": "Front Range South",
      "type": "Public",
      "address": "475 N 2nd St E, Cheyenne Wells, CO 80810",
      "lat": 38.8237,
      "lng": -102.3509,
      "played": false,
      "order": null,
      "first_played": null,
      "video_url": null,
      "has_video": false,
      "apple_maps": "https://maps.apple.com/?q=475%20N%202nd%20St%20E%2C%20Cheyenne%20Wells%2C%20CO%2080810",
      "google_maps": "https://www.google.com/maps/search/?api=1&query=475%20N%202nd%20St%20E%2C%20Cheyenne%20Wells%2C%20CO%2080810"
    },
    {
      "id": 249,
      "name": "Snowmass Club",
      "city": "Snowmass Village",
      "region": "Mountain Area",
      "type": "Semi-Private",
      "address": "239 Snowmass Club Cir, Snowmass Village, CO 81615",
      "lat": 39.2169,
      "lng": -106.9476,
      "played": false,
      "order": null,
      "first_played": null,
      "video_url": null,
      "has_video": false,
      "apple_maps": "https://maps.apple.com/?q=239%20Snowmass%20Club%20Cir%2C%20Snowmass%20Village%2C%20CO%2081615",
      "google_maps": "https://www.google.com/maps/search/?api=1&query=239%20Snowmass%20Club%20Cir%2C%20Snowmass%20Village%2C%20CO%2081615"
    },
    {
      "id": 250,
      "name": "Sonnenalp Club",
      "city": "Edwards",
      "region": "Mountain Area",
      "type": "Private",
      "address": "1265 Berry Creek Rd, Edwards, CO 81632",
      "lat": 39.6284,
      "lng": -106.6029,
      "played": false,
      "order": null,
      "first_played": null,
      "video_url": null,
      "has_video": false,
      "apple_maps": "https://maps.apple.com/?q=1265%20Berry%20Creek%20Rd%2C%20Edwards%2C%20CO%2081632",
      "google_maps": "https://www.google.com/maps/search/?api=1&query=1265%20Berry%20Creek%20Rd%2C%20Edwards%2C%20CO%2081632"
    },
    {
      "id": 251,
      "name": "South Forty Golf Course",
      "city": "Cortez",
      "region": "West Slope",
      "type": "Public",
      "address": "25500 Co Rd H, Cortez, CO 81321",
      "lat": 37.3387,
      "lng": -108.6332,
      "played": false,
      "order": null,
      "first_played": null,
      "video_url": null,
      "has_video": false,
      "apple_maps": "https://maps.apple.com/?q=25500%20Co%20Rd%20H%2C%20Cortez%2C%20CO%2081321",
      "google_maps": "https://www.google.com/maps/search/?api=1&query=25500%20Co%20Rd%20H%2C%20Cortez%2C%20CO%2081321"
    },
    {
      "id": 252,
      "name": "South Suburban Family Sports Center",
      "city": "Dove Valley",
      "region": "Denver Area",
      "type": "Public",
      "address": "6901 S Peoria St, Dove Valley, CO 80112",
      "lat": 39.5913,
      "lng": -104.8475,
      "played": true,
      "order": 94,
      "first_played": "2025-05-19",
      "video_url": "https://www.instagram.com/reel/DKuJ730s5oE/?utm_source=ig_web_copy_link&igsh=ZzhrczN4MmM4OWd6",
      "has_video": true,
      "apple_maps": "https://maps.apple.com/?q=6901%20S%20Peoria%20St%2C%20Dove%20Valley%2C%20CO%2080112",
      "google_maps": "https://www.google.com/maps/search/?api=1&query=6901%20S%20Peoria%20St%2C%20Dove%20Valley%2C%20CO%2080112"
    },
    {
      "id": 253,
      "name": "South Suburban Golf Course - Par 3",
      "city": "Centennial",
      "region": "Denver Area",
      "type": "Public",
      "address": "7900 S Colorado Blvd, Centennial, CO 80122",
      "lat": 39.574018,
      "lng": -104.939592,
      "played": false,
      "order": null,
      "first_played": null,
      "video_url": null,
      "has_video": false,
      "apple_maps": "https://maps.apple.com/?q=7900%20S%20Colorado%20Blvd%2C%20Centennial%2C%20CO%2080122",
      "google_maps": "https://www.google.com/maps/search/?api=1&query=7900%20S%20Colorado%20Blvd%2C%20Centennial%2C%20CO%2080122"
    },
    {
      "id": 254,
      "name": "South Suburban Golf Course - Regulation",
      "city": "Centennial",
      "region": "Denver Area",
      "type": "Public",
      "address": "7900 S Colorado Blvd, Centennial, CO 80122",
      "lat": 39.5718,
      "lng": -104.9403,
      "played": true,
      "order": 116,
      "first_played": "2025-10-13",
      "video_url": "https://www.instagram.com/reel/DP_f0qiDrX5/?igsh=MTd2eWxpd24zeDhsdg==",
      "has_video": true,
      "apple_maps": "https://maps.apple.com/?q=7900%20S%20Colorado%20Blvd%2C%20Centennial%2C%20CO%2080122",
      "google_maps": "https://www.google.com/maps/search/?api=1&query=7900%20S%20Colorado%20Blvd%2C%20Centennial%2C%20CO%2080122"
    },
    {
      "id": 255,
      "name": "Southglenn Country Club",
      "city": "Centennial",
      "region": "Denver Area",
      "type": "Private",
      "address": "1489 E Easter Ave, Centennial, CO 80122",
      "lat": 39.5854,
      "lng": -104.9693,
      "played": true,
      "order": 88,
      "first_played": "2025-04-24",
      "video_url": "https://www.instagram.com/reel/DJAgX7FxViK/?igsh=cWpvaHBic3JibTRw",
      "has_video": true,
      "apple_maps": "https://maps.apple.com/?q=1489%20E%20Easter%20Ave%2C%20Centennial%2C%20CO%2080122",
      "google_maps": "https://www.google.com/maps/search/?api=1&query=1489%20E%20Easter%20Ave%2C%20Centennial%2C%20CO%2080122"
    },
    {
      "id": 256,
      "name": "SouthRidge Golf Club",
      "city": "Fort Collins",
      "region": "Front Range North",
      "type": "Public",
      "address": "5750 S Lemay Ave, Fort Collins, CO 80525",
      "lat": 40.5062,
      "lng": -105.0587,
      "played": false,
      "order": null,
      "first_played": null,
      "video_url": null,
      "has_video": false,
      "apple_maps": "https://maps.apple.com/?q=5750%20S%20Lemay%20Ave%2C%20Fort%20Collins%2C%20CO%2080525",
      "google_maps": "https://www.google.com/maps/search/?api=1&query=5750%20S%20Lemay%20Ave%2C%20Fort%20Collins%2C%20CO%2080525"
    },
    {
      "id": 257,
      "name": "Spreading Antlers Golf Club",
      "city": "Lamar",
      "region": "Front Range South",
      "type": "Public",
      "address": "28157 US Highway 287, Lamar, CO 81052",
      "lat": 38.0825,
      "lng": -102.6154,
      "played": false,
      "order": null,
      "first_played": null,
      "video_url": null,
      "has_video": false,
      "apple_maps": "https://maps.apple.com/?q=28157%20US%20Highway%20287%2C%20Lamar%2C%20CO%2081052",
      "google_maps": "https://www.google.com/maps/search/?api=1&query=28157%20US%20Highway%20287%2C%20Lamar%2C%20CO%2081052"
    },
    {
      "id": 258,
      "name": "Spring Valley Golf Course",
      "city": "Elizabeth",
      "region": "Front Range South",
      "type": "Public",
      "address": "42350 County Rd 17/21, Elizabeth, CO 80107",
      "lat": 39.3681,
      "lng": -104.6148,
      "played": true,
      "order": 100,
      "first_played": "2025-06-07",
      "video_url": "https://www.instagram.com/reel/DMDEvZ7NcF1/?utm_source=ig_web_copy_link&igsh=MTltb3Q1czB3YWRlaw==",
      "has_video": true,
      "apple_maps": "https://maps.apple.com/?q=42350%20County%20Rd%2017/21%2C%20Elizabeth%2C%20CO%2080107",
      "google_maps": "https://www.google.com/maps/search/?api=1&query=42350%20County%20Rd%2017/21%2C%20Elizabeth%2C%20CO%2080107"
    },
    {
      "id": 259,
      "name": "Springfield Municipal Golf Course",
      "city": "Springfield",
      "region": "Front Range South",
      "type": "Public",
      "address": "24933 Hwy 160, Springfield, CO 81073",
      "lat": 37.4087,
      "lng": -102.6158,
      "played": false,
      "order": null,
      "first_played": null,
      "video_url": null,
      "has_video": false,
      "apple_maps": "https://maps.apple.com/?q=24933%20Hwy%20160%2C%20Springfield%2C%20CO%2081073",
      "google_maps": "https://www.google.com/maps/search/?api=1&query=24933%20Hwy%20160%2C%20Springfield%2C%20CO%2081073"
    },
    {
      "id": 260,
      "name": "Springhill Golf Course",
      "city": "Aurora",
      "region": "Denver Area",
      "type": "Public",
      "address": "800 Telluride St, Aurora, CO 80011",
      "lat": 39.7282,
      "lng": -104.8161,
      "played": false,
      "order": null,
      "first_played": null,
      "video_url": null,
      "has_video": false,
      "apple_maps": "https://maps.apple.com/?q=800%20Telluride%20St%2C%20Aurora%2C%20CO%2080011",
      "google_maps": "https://www.google.com/maps/search/?api=1&query=800%20Telluride%20St%2C%20Aurora%2C%20CO%2080011"
    },
    {
      "id": 261,
      "name": "Steamboat Golf Club",
      "city": "Steamboat Springs",
      "region": "Mountain Area",
      "type": "Public",
      "address": "26815 W US Highway 40, Steamboat Springs, CO 80487",
      "lat": 40.4708,
      "lng": -106.9192,
      "played": false,
      "order": null,
      "first_played": null,
      "video_url": null,
      "has_video": false,
      "apple_maps": "https://maps.apple.com/?q=26815%20W%20US%20Highway%2040%2C%20Steamboat%20Springs%2C%20CO%2080487",
      "google_maps": "https://www.google.com/maps/search/?api=1&query=26815%20W%20US%20Highway%2040%2C%20Steamboat%20Springs%2C%20CO%2080487"
    },
    {
      "id": 262,
      "name": "Stoney Creek Golf Course",
      "city": "Arvada",
      "region": "Denver Area",
      "type": "Public",
      "address": "13939 W 96th Ave, Arvada, CO 80005",
      "lat": 39.8706,
      "lng": -105.1553,
      "played": false,
      "order": null,
      "first_played": null,
      "video_url": null,
      "has_video": false,
      "apple_maps": "https://maps.apple.com/?q=13939%20W%2096th%20Ave%2C%20Arvada%2C%20CO%2080005",
      "google_maps": "https://www.google.com/maps/search/?api=1&query=13939%20W%2096th%20Ave%2C%20Arvada%2C%20CO%2080005"
    },
    {
      "id": 263,
      "name": "Stratton Golf Course",
      "city": "Stratton",
      "region": "Front Range North",
      "type": "Public",
      "address": "First & Wyoming, Stratton, CO 80836",
      "lat": 39.3034,
      "lng": -102.6045,
      "played": false,
      "order": null,
      "first_played": null,
      "video_url": null,
      "has_video": false,
      "apple_maps": "https://maps.apple.com/?q=First%20%26%20Wyoming%2C%20Stratton%2C%20CO%2080836",
      "google_maps": "https://www.google.com/maps/search/?api=1&query=First%20%26%20Wyoming%2C%20Stratton%2C%20CO%2080836"
    },
    {
      "id": 264,
      "name": "Sumo Golf Village, The",
      "city": "Florence",
      "region": "Front Range South",
      "type": "Semi-Private",
      "address": "5201 Gary Player Dr, Florence, CO 81226",
      "lat": 38.3778,
      "lng": -105.1064,
      "played": false,
      "order": null,
      "first_played": null,
      "video_url": null,
      "has_video": false,
      "apple_maps": "https://maps.apple.com/?q=5201%20Gary%20Player%20Dr%2C%20Florence%2C%20CO%2081226",
      "google_maps": "https://www.google.com/maps/search/?api=1&query=5201%20Gary%20Player%20Dr%2C%20Florence%2C%20CO%2081226"
    },
    {
      "id": 265,
      "name": "Sunset Golf Course",
      "city": "Longmont",
      "region": "Front Range North",
      "type": "Public",
      "address": "1900 Longs Peak Ave, Longmont, CO 80501",
      "lat": 40.1794,
      "lng": -105.1008,
      "played": false,
      "order": null,
      "first_played": null,
      "video_url": null,
      "has_video": false,
      "apple_maps": "https://maps.apple.com/?q=1900%20Longs%20Peak%20Ave%2C%20Longmont%2C%20CO%2080501",
      "google_maps": "https://www.google.com/maps/search/?api=1&query=1900%20Longs%20Peak%20Ave%2C%20Longmont%2C%20CO%2080501"
    },
    {
      "id": 266,
      "name": "Tamarack Golf Course",
      "city": "Limon",
      "region": "Front Range North",
      "type": "Public",
      "address": "50771 State Road 71, Limon, CO 80828",
      "lat": 39.2785,
      "lng": -103.6931,
      "played": true,
      "order": 106,
      "first_played": "2025-07-31",
      "video_url": "https://www.instagram.com/p/DNQVrqMRCGG/",
      "has_video": true,
      "apple_maps": "https://maps.apple.com/?q=50771%20State%20Road%2071%2C%20Limon%2C%20CO%2080828",
      "google_maps": "https://www.google.com/maps/search/?api=1&query=50771%20State%20Road%2071%2C%20Limon%2C%20CO%2080828"
    },
    {
      "id": 267,
      "name": "Telluride Ski & Golf Club",
      "city": "Telluride",
      "region": "West Slope",
      "type": "Resort",
      "address": "565 Mountain Village Blvd, Telluride, CO 81435 ​",
      "lat": 37.9375,
      "lng": -107.8453,
      "played": false,
      "order": null,
      "first_played": null,
      "video_url": null,
      "has_video": false,
      "apple_maps": "https://maps.apple.com/?q=565%20Mountain%20Village%20Blvd%2C%20Telluride%2C%20CO%2081435%20%E2%80%8B",
      "google_maps": "https://www.google.com/maps/search/?api=1&query=565%20Mountain%20Village%20Blvd%2C%20Telluride%2C%20CO%2081435%20%E2%80%8B"
    },
    {
      "id": 268,
      "name": "Thorncreek Golf Club",
      "city": "Thornton",
      "region": "Denver Area",
      "type": "Public",
      "address": "13555 Washington St, Thornton, CO 80241",
      "lat": 39.9369,
      "lng": -104.9786,
      "played": false,
      "order": null,
      "first_played": null,
      "video_url": null,
      "has_video": false,
      "apple_maps": "https://maps.apple.com/?q=13555%20Washington%20St%2C%20Thornton%2C%20CO%2080241",
      "google_maps": "https://www.google.com/maps/search/?api=1&query=13555%20Washington%20St%2C%20Thornton%2C%20CO%2080241"
    },
    {
      "id": 269,
      "name": "Tiara Rado Golf Course",
      "city": "Grand Junction",
      "region": "West Slope",
      "type": "Public",
      "address": "2057 S Broadway, Grand Junction, CO 81507",
      "lat": 39.0548,
      "lng": -108.5692,
      "played": false,
      "order": null,
      "first_played": null,
      "video_url": null,
      "has_video": false,
      "apple_maps": "https://maps.apple.com/?q=2057%20S%20Broadway%2C%20Grand%20Junction%2C%20CO%2081507",
      "google_maps": "https://www.google.com/maps/search/?api=1&query=2057%20S%20Broadway%2C%20Grand%20Junction%2C%20CO%2081507"
    },
    {
      "id": 270,
      "name": "Todd Creek Golf Club",
      "city": "Thornton",
      "region": "Denver Area",
      "type": "Semi-Private",
      "address": "8455 Heritage Dr, Thornton, CO 80602",
      "lat": 39.8571,
      "lng": -104.9124,
      "played": true,
      "order": 66,
      "first_played": "2024-05-12",
      "video_url": null,
      "has_video": false,
      "apple_maps": "https://maps.apple.com/?q=8455%20Heritage%20Dr%2C%20Thornton%2C%20CO%2080602",
      "google_maps": "https://www.google.com/maps/search/?api=1&query=8455%20Heritage%20Dr%2C%20Thornton%2C%20CO%2080602"
    },
    {
      "id": 271,
      "name": "TPC Colorado",
      "city": "Berthoud",
      "region": "Front Range North",
      "type": "Semi-Private",
      "address": "2375 TPC Parkway, Berthoud, CO 80513",
      "lat": 40.3352,
      "lng": -105.0269,
      "played": true,
      "order": 31,
      "first_played": "2021-11-12",
      "video_url": null,
      "has_video": false,
      "apple_maps": "https://maps.apple.com/?q=2375%20TPC%20Parkway%2C%20Berthoud%2C%20CO%2080513",
      "google_maps": "https://www.google.com/maps/search/?api=1&query=2375%20TPC%20Parkway%2C%20Berthoud%2C%20CO%2080513"
    },
    {
      "id": 272,
      "name": "Trinidad Golf Course",
      "city": "Trinidad",
      "region": "Front Range South",
      "type": "Public",
      "address": "1415 Franklin D Azar Dr, Trinidad, CO 81082",
      "lat": 37.1668,
      "lng": -104.4987,
      "played": true,
      "order": 62,
      "first_played": "2024-04-13",
      "video_url": null,
      "has_video": false,
      "apple_maps": "https://maps.apple.com/?q=1415%20Franklin%20D%20Azar%20Dr%2C%20Trinidad%2C%20CO%2081082",
      "google_maps": "https://www.google.com/maps/search/?api=1&query=1415%20Franklin%20D%20Azar%20Dr%2C%20Trinidad%2C%20CO%2081082"
    },
    {
      "id": 273,
      "name": "Twin Peaks Golf Course",
      "city": "Longmont",
      "region": "Front Range North",
      "type": "Public",
      "address": "1200 Cornell Dr, Longmont, CO 80503",
      "lat": 40.1549,
      "lng": -105.1583,
      "played": false,
      "order": null,
      "first_played": null,
      "video_url": null,
      "has_video": false,
      "apple_maps": "https://maps.apple.com/?q=1200%20Cornell%20Dr%2C%20Longmont%2C%20CO%2080503",
      "google_maps": "https://www.google.com/maps/search/?api=1&query=1200%20Cornell%20Dr%2C%20Longmont%2C%20CO%2080503"
    },
    {
      "id": 274,
      "name": "Unaweep Canyon Golf Course",
      "city": "Whitewater",
      "region": "West Slope",
      "type": "Public",
      "address": "CO-141, Grand Junction, CO 81503",
      "lat": 39.0327,
      "lng": -108.5224,
      "played": false,
      "order": null,
      "first_played": null,
      "video_url": null,
      "has_video": false,
      "apple_maps": "https://maps.apple.com/?q=CO-141%2C%20Grand%20Junction%2C%20CO%2081503",
      "google_maps": "https://www.google.com/maps/search/?api=1&query=CO-141%2C%20Grand%20Junction%2C%20CO%2081503"
    },
    {
      "id": 275,
      "name": "Ute Creek",
      "city": "Longmont",
      "region": "Denver Area",
      "type": "Public",
      "address": "2000 Ute Creek Dr, Longmont, CO 80504",
      "lat": 40.2041,
      "lng": -105.0905,
      "played": false,
      "order": null,
      "first_played": null,
      "video_url": null,
      "has_video": false,
      "apple_maps": "https://maps.apple.com/?q=2000%20Ute%20Creek%20Dr%2C%20Longmont%2C%20CO%2080504",
      "google_maps": "https://www.google.com/maps/search/?api=1&query=2000%20Ute%20Creek%20Dr%2C%20Longmont%2C%20CO%2080504"
    },
    {
      "id": 276,
      "name": "Vail Golf Club",
      "city": "Vail",
      "region": "Mountain Area",
      "type": "Public",
      "address": "1775 Sunburst Dr, Vail, CO 81657",
      "lat": 39.6372,
      "lng": -106.3796,
      "played": false,
      "order": null,
      "first_played": null,
      "video_url": null,
      "has_video": false,
      "apple_maps": "https://maps.apple.com/?q=1775%20Sunburst%20Dr%2C%20Vail%2C%20CO%2081657",
      "google_maps": "https://www.google.com/maps/search/?api=1&query=1775%20Sunburst%20Dr%2C%20Vail%2C%20CO%2081657"
    },
    {
      "id": 277,
      "name": "Valley Country Club",
      "city": "Centennial",
      "region": "Denver Area",
      "type": "Private",
      "address": "14601 Country Club Dr, Centennial, CO 80016",
      "lat": 39.5583,
      "lng": -104.7881,
      "played": true,
      "order": 57,
      "first_played": "2023-10-02",
      "video_url": null,
      "has_video": false,
      "apple_maps": "https://maps.apple.com/?q=14601%20Country%20Club%20Dr%2C%20Centennial%2C%20CO%2080016",
      "google_maps": "https://www.google.com/maps/search/?api=1&query=14601%20Country%20Club%20Dr%2C%20Centennial%2C%20CO%2080016"
    },
    {
      "id": 278,
      "name": "Valley Hi Golf Course",
      "city": "Colorado Springs",
      "region": "Front Range South",
      "type": "Public",
      "address": "610 S Chelton Rd, Colorado Springs, CO 80910",
      "lat": 38.8269,
      "lng": -104.7733,
      "played": true,
      "order": 13,
      "first_played": "2019-08-31",
      "video_url": null,
      "has_video": false,
      "apple_maps": "https://maps.apple.com/?q=610%20S%20Chelton%20Rd%2C%20Colorado%20Springs%2C%20CO%2080910",
      "google_maps": "https://www.google.com/maps/search/?api=1&query=610%20S%20Chelton%20Rd%2C%20Colorado%20Springs%2C%20CO%2080910"
    },
    {
      "id": 279,
      "name": "Walking Stick Golf Course",
      "city": "Pueblo",
      "region": "Front Range South",
      "type": "Public",
      "address": "4301 Walking Stick Blvd, Pueblo, CO 81001",
      "lat": 38.3124,
      "lng": -104.5598,
      "played": false,
      "order": null,
      "first_played": null,
      "video_url": null,
      "has_video": false,
      "apple_maps": "https://maps.apple.com/?q=4301%20Walking%20Stick%20Blvd%2C%20Pueblo%2C%20CO%2081001",
      "google_maps": "https://www.google.com/maps/search/?api=1&query=4301%20Walking%20Stick%20Blvd%2C%20Pueblo%2C%20CO%2081001"
    },
    {
      "id": 280,
      "name": "Walnut Creek Golf Preserve",
      "city": "Westminster",
      "region": "Denver Area",
      "type": "Public",
      "address": "10555 Westmoor Dr, Westminster, CO 80021",
      "lat": 39.8848,
      "lng": -105.1336,
      "played": true,
      "order": 33,
      "first_played": "2022-04-21",
      "video_url": null,
      "has_video": false,
      "apple_maps": "https://maps.apple.com/?q=10555%20Westmoor%20Dr%2C%20Westminster%2C%20CO%2080021",
      "google_maps": "https://www.google.com/maps/search/?api=1&query=10555%20Westmoor%20Dr%2C%20Westminster%2C%20CO%2080021"
    },
    {
      "id": 281,
      "name": "Walsenburg Golf Course",
      "city": "Walsenburg",
      "region": "Front Range South",
      "type": "Public",
      "address": "1399 Co Rd 502, Walsenburg, CO 81089",
      "lat": 37.6234,
      "lng": -104.7816,
      "played": false,
      "order": null,
      "first_played": null,
      "video_url": null,
      "has_video": false,
      "apple_maps": "https://maps.apple.com/?q=1399%20Co%20Rd%20502%2C%20Walsenburg%2C%20CO%2081089",
      "google_maps": "https://www.google.com/maps/search/?api=1&query=1399%20Co%20Rd%20502%2C%20Walsenburg%2C%20CO%2081089"
    },
    {
      "id": 282,
      "name": "Washington County Golf Club",
      "city": "Akron",
      "region": "Front Range North",
      "type": "Public",
      "address": "39469 Hwy 63, Akron, CO 80720",
      "lat": 40.1695,
      "lng": -103.2139,
      "played": false,
      "order": null,
      "first_played": null,
      "video_url": null,
      "has_video": false,
      "apple_maps": "https://maps.apple.com/?q=39469%20Hwy%2063%2C%20Akron%2C%20CO%2080720",
      "google_maps": "https://www.google.com/maps/search/?api=1&query=39469%20Hwy%2063%2C%20Akron%2C%20CO%2080720"
    },
    {
      "id": 283,
      "name": "Wellshire Golf Course",
      "city": "Denver",
      "region": "Denver Area",
      "type": "Public",
      "address": "3900 E Dartmouth Ave, Denver, CO 80210",
      "lat": 39.6604,
      "lng": -104.9418,
      "played": true,
      "order": 46,
      "first_played": "2023-06-20",
      "video_url": "https://www.instagram.com/reel/DJ6etP-tcSl/?utm_source=ig_web_copy_link&igsh=MzRlODBiNWFlZA==",
      "has_video": true,
      "apple_maps": "https://maps.apple.com/?q=3900%20E%20Dartmouth%20Ave%2C%20Denver%2C%20CO%2080210",
      "google_maps": "https://www.google.com/maps/search/?api=1&query=3900%20E%20Dartmouth%20Ave%2C%20Denver%2C%20CO%2080210"
    },
    {
      "id": 284,
      "name": "West Woods Golf Club Cottonwood",
      "city": "Arvada",
      "region": "Denver Area",
      "type": "Public",
      "address": "6655 Quaker St, Arvada, CO 80007",
      "lat": 39.8175,
      "lng": -105.2194,
      "played": false,
      "order": null,
      "first_played": null,
      "video_url": null,
      "has_video": false,
      "apple_maps": "https://maps.apple.com/?q=6655%20Quaker%20St%2C%20Arvada%2C%20CO%2080007",
      "google_maps": "https://www.google.com/maps/search/?api=1&query=6655%20Quaker%20St%2C%20Arvada%2C%20CO%2080007"
    },
    {
      "id": 285,
      "name": "West Woods Golf Club Silo",
      "city": "Arvada",
      "region": "Denver Area",
      "type": "Public",
      "address": "6655 Quaker St, Arvada, CO 80007",
      "lat": 39.8175,
      "lng": -105.2194,
      "played": false,
      "order": null,
      "first_played": null,
      "video_url": null,
      "has_video": false,
      "apple_maps": "https://maps.apple.com/?q=6655%20Quaker%20St%2C%20Arvada%2C%20CO%2080007",
      "google_maps": "https://www.google.com/maps/search/?api=1&query=6655%20Quaker%20St%2C%20Arvada%2C%20CO%2080007"
    },
    {
      "id": 286,
      "name": "West Woods Golf Club Sleeping Indian",
      "city": "Arvada",
      "region": "Denver Area",
      "type": "Public",
      "address": "6655 Quaker St, Arvada, CO 80007",
      "lat": 39.8175,
      "lng": -105.2194,
      "played": false,
      "order": null,
      "first_played": null,
      "video_url": null,
      "has_video": false,
      "apple_maps": "https://maps.apple.com/?q=6655%20Quaker%20St%2C%20Arvada%2C%20CO%2080007",
      "google_maps": "https://www.google.com/maps/search/?api=1&query=6655%20Quaker%20St%2C%20Arvada%2C%20CO%2080007"
    },
    {
      "id": 287,
      "name": "Willis Case Golf Course",
      "city": "Denver",
      "region": "Denver Area",
      "type": "Public",
      "address": "4999 Vrain St, Denver, CO 80212",
      "lat": 39.7862,
      "lng": -105.0463,
      "played": true,
      "order": 54,
      "first_played": "2023-08-10",
      "video_url": "https://www.instagram.com/reel/DIzwc6aRywS/?igsh=NnZ2OW9jNDIwOHMw",
      "has_video": true,
      "apple_maps": "https://maps.apple.com/?q=4999%20Vrain%20St%2C%20Denver%2C%20CO%2080212",
      "google_maps": "https://www.google.com/maps/search/?api=1&query=4999%20Vrain%20St%2C%20Denver%2C%20CO%2080212"
    },
    {
      "id": 288,
      "name": "Willow Creek Golf Club at Eagle Vail",
      "city": "Avon",
      "region": "Mountain Area",
      "type": "Public",
      "address": "538 Eagle Rd, Avon, CO 81620",
      "lat": 39.6339,
      "lng": -106.5228,
      "played": false,
      "order": null,
      "first_played": null,
      "video_url": null,
      "has_video": false,
      "apple_maps": "https://maps.apple.com/?q=538%20Eagle%20Rd%2C%20Avon%2C%20CO%2081620",
      "google_maps": "https://www.google.com/maps/search/?api=1&query=538%20Eagle%20Rd%2C%20Avon%2C%20CO%2081620"
    },
    {
      "id": 289,
      "name": "Wind Walker Ranch",
      "city": "Steam Boat Springs",
      "region": "Mountain Area",
      "type": "Private",
      "address": "18 CO-131, Steamboat Springs, CO 80487",
      "lat": 40.4904,
      "lng": -106.8067,
      "played": false,
      "order": null,
      "first_played": null,
      "video_url": null,
      "has_video": false,
      "apple_maps": "https://maps.apple.com/?q=18%20CO-131%2C%20Steamboat%20Springs%2C%20CO%2080487",
      "google_maps": "https://www.google.com/maps/search/?api=1&query=18%20CO-131%2C%20Steamboat%20Springs%2C%20CO%2080487"
    },
    {
      "id": 290,
      "name": "Wray Golf Course/ Country Club",
      "city": "Wray",
      "region": "Front Range North",
      "type": "Public",
      "address": "500 4th St, Wray, CO 80758",
      "lat": 40.0739,
      "lng": -102.2235,
      "played": false,
      "order": null,
      "first_played": null,
      "video_url": null,
      "has_video": false,
      "apple_maps": "https://maps.apple.com/?q=500%204th%20St%2C%20Wray%2C%20CO%2080758",
      "google_maps": "https://www.google.com/maps/search/?api=1&query=500%204th%20St%2C%20Wray%2C%20CO%2080758"
    },
    {
      "id": 291,
      "name": "Yampa Valley Golf Club",
      "city": "Craig",
      "region": "Mountain Area",
      "type": "Public",
      "address": "2179 CO-394, Craig, CO 81625",
      "lat": 40.5146,
      "lng": -107.5528,
      "played": false,
      "order": null,
      "first_played": null,
      "video_url": null,
      "has_video": false,
      "apple_maps": "https://maps.apple.com/?q=2179%20CO-394%2C%20Craig%2C%20CO%2081625",
      "google_maps": "https://www.google.com/maps/search/?api=1&query=2179%20CO-394%2C%20Craig%2C%20CO%2081625"
    }
  ]
}